property_id,property_slug,name,type,accommodation_type_id,url,thumbnails,address_street,address_city,address_country,geo_lat,geo_lng,stars,review_score,review_count,review_word,value_for_money_score,location_score,preferred,preferred_plus,autoextended,price_total,price_per_night,currency,taxes_included,free_cancellation_until,distance_to_centre_km,scrape_datetime,checkin,checkout,city_search,nb_nights
261483,le-gamaritz,Le Gamaritz,Hôtel,204,https://www.booking.com/hotel/fr/le-gamaritz.fr.html,"[""https://www.booking.com/xdata/images/hotel/square600/398600377.jpg?k=1f14312755abf3127369c9c41914c4edfa547d70a39eb4824eb6f9dde42402b1&o=""]",5 Perspective de la Côte des Basques,Biarritz,fr,43.481774198197215,-1.5665441751480103,3.0,,,,,,True,False,False,220.8000000000001,110.40000000000005,EUR,True,,,2026-06-03 14:31:46.059656+00:00,2026-10-02,2026-10-04,Biarritz,2
53901,le-grand-large-biarritz,Résidence Vacances Bleues Le Grand Large,Type N°206,206,https://www.booking.com/hotel/fr/le-grand-large-biarritz.fr.html,"[""https://www.booking.com/xdata/images/hotel/square600/763886212.jpg?k=5bd274f6ededdca34a9980c2c5ee4035f8671f1a304550e2a23456fbca639995&o=""]",1 rue Dalbarade,Biarritz,fr,43.48065123446311,-1.5653452277183533,3.0,,,,,,True,False,False,233.8000000000001,116.90000000000005,EUR,True,,,2026-06-03 14:31:46.059681+00:00,2026-10-02,2026-10-04,Biarritz,2
171649,residence-mer-et-golf-eugenie,Résidence Mer & Golf Eugénie,Apparthôtel,219,https://www.booking.com/hotel/fr/residence-mer-et-golf-eugenie.fr.html,"[""https://www.booking.com/xdata/images/hotel/square600/159695170.jpg?k=cb393ba6399d6e926bd6adb2c3e8f96ef89848ee7f9300cc7b62c77ab47c2dbd&o=""]",54-56 Rue de Madrid,Biarritz,fr,43.46963652033791,-1.5694905817508698,4.0,,,,,,True,False,False,210.9600000000001,105.48000000000005,EUR,True,2026-09-01T22:00:00Z,1.4,2026-06-03 14:31:46.059683+00:00,2026-10-02,2026-10-04,Biarritz,2
53885,la-maison-du-lierre,Hôtel & Espace Bien-être La Maison du Lierre,Hôtel,204,https://www.booking.com/hotel/fr/la-maison-du-lierre.fr.html,"[""https://www.booking.com/xdata/images/hotel/square600/116990212.jpg?k=cf66121d54b9ddd1cf18508e7a5f498e3b9854fcd1d4c7e6ae4e1a5a5d3862c6&o=""]",3 avenue du Jardin Public,Biarritz,fr,43.480133535313925,-1.5607613325119019,3.0,,,,,,True,False,False,307.8000000000001,153.90000000000006,EUR,True,,,2026-06-03 14:31:46.059684+00:00,2026-10-02,2026-10-04,Biarritz,2
539345,de-la-plage-biarritz,Hôtel de La Plage,Hôtel,204,https://www.booking.com/hotel/fr/de-la-plage-biarritz.fr.html,"[""https://www.booking.com/xdata/images/hotel/square600/400291502.jpg?k=ac84c002a06b99db1bb1db08d72fcd0c8496a09ee1b1b6c635012cc0dae98208&o=""]","3, esplanade du Port Vieux",Biarritz,fr,43.482133269718496,-1.567530557513237,4.0,,,,,,True,False,False,522.1600000000001,261.08000000000004,EUR,True,,0.6,2026-06-03 14:31:46.059686+00:00,2026-10-02,2026-10-04,Biarritz,2
254704,palacito,Hôtel Cosmopolitain,Hôtel,204,https://www.booking.com/hotel/fr/palacito.fr.html,"[""https://www.booking.com/xdata/images/hotel/square600/208031369.jpg?k=1e4672452561f2c0fbb2bb91e53ea1ae4e20c612c7d4c3935cad7cc1ebc942a6&o=""]","1, Rue Gambetta",Biarritz,fr,43.48217900496228,-1.5618395805358887,3.0,,,,,,True,False,False,337.8000000000001,168.90000000000006,EUR,True,,,2026-06-03 14:31:46.059687+00:00,2026-10-02,2026-10-04,Biarritz,2
1059365,carlina-lodge-biarritz,Carlina Lodge,Apparthôtel,219,https://www.booking.com/hotel/fr/carlina-lodge-biarritz.fr.html,"[""https://www.booking.com/xdata/images/hotel/square600/761607919.jpg?k=dc2dfc5215759e77bd0c39424e59c4bc433e635e3195038bb8fe021d239a5342&o=""]",Boulevard Prince de Galles,Biarritz,fr,43.47747717485338,-1.5668547539672772,3.0,,,,,,True,False,False,363.0000000000001,181.50000000000006,EUR,True,2026-09-10T22:00:00Z,0.6,2026-06-03 14:31:46.059688+00:00,2026-10-02,2026-10-04,Biarritz,2
396215,eugenie-biarritz,Hôtel Florida,Hôtel,204,https://www.booking.com/hotel/fr/eugenie-biarritz.fr.html,"[""https://www.booking.com/xdata/images/hotel/square600/9184015.jpg?k=10da84488d256837f84d97db690f63534aea4d3e8bee48cee669ba45289bf832&o=""]",3-5 place Sainte Eugenie,Biarritz,fr,43.482229605617206,-1.5639907121658325,4.0,,,,,,True,False,False,314.9600000000001,157.48000000000005,EUR,True,2026-09-24T22:00:00Z,,2026-06-03 14:31:46.059689+00:00,2026-10-02,2026-10-04,Biarritz,2
57371,thalassa-miramar-biarritz,Sofitel Biarritz Le Miramar Thalassa,Hôtel,204,https://www.booking.com/hotel/fr/thalassa-miramar-biarritz.fr.html,"[""https://www.booking.com/xdata/images/hotel/square600/869103348.jpg?k=2c58f9f593d48291e469c6e701349a0cdf980e9701b1267c41a2b498c56208f3&o=""]",13 rue Louison Bobet,Biarritz,fr,43.487847960870255,-1.5544447302818298,5.0,,,,,,True,False,False,498.0800000000001,249.04000000000005,EUR,True,,1.0,2026-06-03 14:31:46.059690+00:00,2026-10-02,2026-10-04,Biarritz,2
54579,edouard-vii,Hotel Edouard VII,Hôtel,204,https://www.booking.com/hotel/fr/edouard-vii.fr.html,"[""https://www.booking.com/xdata/images/hotel/square600/825337925.jpg?k=64769e32e5a7412a51e4bc316550f31f04812f633e803716c58baf4f04c773f5&o=""]",21 Avenue Carnot,Biarritz,fr,43.479203222687474,-1.5622150897979736,3.0,,,,,,True,False,False,365.8000000000001,182.90000000000006,EUR,True,2026-09-29T22:00:00Z,,2026-06-03 14:31:46.059692+00:00,2026-10-02,2026-10-04,Biarritz,2
209308,tonic-hotel-biarritz,Grand Tonic Hotel & SPA NUXE,Hôtel,204,https://www.booking.com/hotel/fr/tonic-hotel-biarritz.fr.html,"[""https://www.booking.com/xdata/images/hotel/square600/686581953.jpg?k=749a1aae9bef903cb05da1dbc9c509ee7141328033c3a3a365f55074953f48f0&o=""]",58 Avenue Edouard VII,Biarritz,fr,43.48447350743248,-1.5569445490837097,4.0,,,,,,True,False,False,444.9600000000001,222.48000000000005,EUR,True,,0.5,2026-06-03 14:31:46.059693+00:00,2026-10-02,2026-10-04,Biarritz,2
57961,saint-james,Hôtel Saint James,Hôtel,204,https://www.booking.com/hotel/fr/saint-james.fr.html,"[""https://www.booking.com/xdata/images/hotel/square600/56295331.jpg?k=d484e100bf450632767ae65d2ce95d1ffc9070ec47a8f11a4c778f5de1344e49&o=""]",1 Rue des Halles,Biarritz,fr,43.481316841136795,-1.5628641843795776,2.0,,,,,,True,False,False,235.76000000000008,117.88000000000004,EUR,True,,,2026-06-03 14:31:46.059694+00:00,2026-10-02,2026-10-04,Biarritz,2
444943,baron-de-biarritz,Hôtel Parc Mazon-Biarritz,Hôtel,204,https://www.booking.com/hotel/fr/baron-de-biarritz.fr.html,"[""https://www.booking.com/xdata/images/hotel/square600/573993451.jpg?k=5f44a878c576ba76711aa14b566e0d91971b36acb267d7724d1739f0e32713ee&o=""]",13 avenue Maréchal Joffre ,Biarritz,fr,43.477724035043224,-1.5622150897979736,2.0,,,,,,True,False,False,245.76000000000008,122.88000000000004,EUR,True,2026-09-29T22:00:00Z,,2026-06-03 14:31:46.059695+00:00,2026-10-02,2026-10-04,Biarritz,2
8335928,nemea-appart-les-hauts-de-milady,Nemea Appart Hotel Les Hauts de Milady Biarritz,Apparthôtel,219,https://www.booking.com/hotel/fr/nemea-appart-les-hauts-de-milady.fr.html,"[""https://www.booking.com/xdata/images/hotel/square600/717058367.jpg?k=e5045ce8812ea3a51668ab4d76e27f70c5926677ae86b208dbe2b5bf7d204cce&o=""]",24 Avenue de la Milady,Biarritz,fr,43.4702245,-1.5678466,4.0,,,,,,True,False,False,236.72000000000008,118.36000000000004,EUR,True,,1.3,2026-06-03 14:31:46.059696+00:00,2026-10-02,2026-10-04,Biarritz,2
217354,amaryshotel,Sure Hotel by Best Western Biarritz Aeroport,Hôtel,204,https://www.booking.com/hotel/fr/amaryshotel.fr.html,"[""https://www.booking.com/xdata/images/hotel/square600/835476619.jpg?k=542fc4a751e121c95f319e9b59494a5d256bf51afb905e01b4dce385d532f02f&o=""]",24 boulevard marcel dassault,Biarritz,fr,43.47220790289405,-1.5348994731903076,3.0,,,,,,True,False,False,158.4701000000001,79.23505000000004,EUR,True,2026-09-17T22:00:00Z,2.3,2026-06-03 14:31:46.059697+00:00,2026-10-02,2026-10-04,Biarritz,2
499443,le-caritz,Roc Seven Biarritz,Hôtel,204,https://www.booking.com/hotel/fr/le-caritz.fr.html,"[""https://www.booking.com/xdata/images/hotel/square600/700536027.jpg?k=a59da21445d4117c10b2191d4827956933e29b0e8cd375d91aabafaf5b08dc79&o=""]",14 rue du Port Vieux,Biarritz,fr,43.482308425783714,-1.566811054944992,4.0,,,,,,True,False,False,480.9600000000001,240.48000000000005,EUR,True,,0.5,2026-06-03 14:31:46.059698+00:00,2026-10-02,2026-10-04,Biarritz,2
307816,le-saint-charles-biarritz,Saint Charles Hôtel & Coliving Biarritz,Hôtel,204,https://www.booking.com/hotel/fr/le-saint-charles-biarritz.fr.html,"[""https://www.booking.com/xdata/images/hotel/square600/766263476.jpg?k=1478db75b593dc70d28d9dd474b2d33e3b7bb239f927286e993f8cf18536d8fb&o=""]",47 avenue Reine Victoria,Biarritz,fr,43.48538135902915,-1.5492036938667297,3.0,,,,,,True,False,False,228.0600000000001,114.03000000000004,EUR,True,,1.1,2026-06-03 14:31:46.059699+00:00,2026-10-02,2026-10-04,Biarritz,2
53567,altess-hotel,Surf Club Hôtel by Akena - Grande plage,Hôtel,204,https://www.booking.com/hotel/fr/altess-hotel.fr.html,"[""https://www.booking.com/xdata/images/hotel/square600/613460821.jpg?k=297a584162f450440ddaa58e7bf934f3c79fc67f05a7ae4f36e50aad63611ef9&o=""]",19 Avenue De La Reine Victoria,Biarritz,fr,43.48534146444387,-1.5523874759674072,3.0,,,,,,True,False,False,352.8000000000001,176.40000000000006,EUR,True,2026-09-30T22:00:00Z,0.9,2026-06-03 14:31:46.059700+00:00,2026-10-02,2026-10-04,Biarritz,2
180402,logis-val-flores,Hôtel VAL FLORES LOGIS,Hôtel,204,https://www.booking.com/hotel/fr/logis-val-flores.fr.html,"[""https://www.booking.com/xdata/images/hotel/square600/171899595.jpg?k=16191c78122e53157d9d930d73f8c1548c8c16b7353d8e2480dd41f0da9de46e&o=""]","48, avenue de La Marne",Biarritz,fr,43.48380307021778,-1.5483614802360535,2.0,,,,,,True,False,False,210.00000000000009,105.00000000000004,EUR,True,2026-09-28T22:00:00Z,1.1,2026-06-03 14:31:46.059701+00:00,2026-10-02,2026-10-04,Biarritz,2
7390456,le-garage-regina,Le Garage Biarritz Hôtel,Hôtel,204,https://www.booking.com/hotel/fr/le-garage-regina.fr.html,"[""https://www.booking.com/xdata/images/hotel/square600/316932584.jpg?k=ac10a17e74e11e490bace93d186c7b5b243f3395673bc8d035d0523a9e6138d0&o=""]",50 Avenue de l'Impératrice,Biarritz,fr,43.490592,-1.5516969999999999,4.0,,,,,,True,False,False,571.4600000000002,285.7300000000001,EUR,True,,1.3,2026-06-03 14:31:46.059702+00:00,2026-10-02,2026-10-04,Biarritz,2
475795,au-bon-coin-biarritz,Hôtel Au Bon Coin,Hôtel,204,https://www.booking.com/hotel/fr/au-bon-coin-biarritz.fr.html,"[""https://www.booking.com/xdata/images/hotel/square600/190940520.jpg?k=72cbe69c5dd300ab3ea94c1a0ab1ba9f012bba8bd95cd1cb1c2467c8826c3b31&o=""]",5 rue de la cité,Biarritz,fr,43.4821737,-1.5541904,3.0,,,,,,True,False,False,309.8000000000001,154.90000000000006,EUR,True,2026-09-29T22:00:00Z,0.6,2026-06-03 14:31:46.059703+00:00,2026-10-02,2026-10-04,Biarritz,2
54253,le-cafe-de-paris-4,Hôtel Le Café de Paris,Hôtel,204,https://www.booking.com/hotel/fr/le-cafe-de-paris-4.fr.html,"[""https://www.booking.com/xdata/images/hotel/square600/328145042.jpg?k=d2b543b02e30b4a3014655889b6deb6777d26ef36c8fad5a351e9f79f2e3e010&o=""]",Place Bellevue,Biarritz,fr,43.482718094375606,-1.5613406896591187,4.0,,,,,,True,False,False,762.9600000000002,381.4800000000001,EUR,True,,,2026-06-03 14:31:46.059704+00:00,2026-10-02,2026-10-04,Biarritz,2
55262,alcyon-biarritz,Ama Hôtel,Hôtel,204,https://www.booking.com/hotel/fr/alcyon-biarritz.fr.html,"[""https://www.booking.com/xdata/images/hotel/square600/441275409.jpg?k=066b0c8bbaa48180dcc7429cea76da7f00d9c96a569dfa60d7215ec2eaa93c8a&o=""]",8 rue Maison Suisse,Biarritz,fr,43.48131294872144,-1.5574930608272552,3.0,,,,,,True,False,False,353.2400000000001,176.62000000000006,EUR,True,,,2026-06-03 14:31:46.059706+00:00,2026-10-02,2026-10-04,Biarritz,2
59127,inter-windsor,Hôtel Le Windsor Biarritz,Hôtel,204,https://www.booking.com/hotel/fr/inter-windsor.fr.html,"[""https://www.booking.com/xdata/images/hotel/square600/312757428.jpg?k=ff590d91f977502d184d99291a8cf3526a40c395efa11bdccf92ad5bfdfa99fc&o=""]",11 Avenue Edouard VII,Biarritz,fr,43.484374255948275,-1.5586356818675995,4.0,,,,,,True,False,False,438.3200000000001,219.16000000000005,EUR,True,,,2026-06-03 14:31:46.059706+00:00,2026-10-02,2026-10-04,Biarritz,2
51487,hoteldupalaisbiarritz,"Hôtel du Palais Biarritz, in The Unbound Collection by Hyatt",Hôtel,204,https://www.booking.com/hotel/fr/hoteldupalaisbiarritz.fr.html,"[""https://www.booking.com/xdata/images/hotel/square600/838538312.jpg?k=62f808e4cdfd083daa3051b7d96404c43e868a639ec5d93e56bdb5fa2e9e3718&o=""]","1, Avenue de l'Impératrice",Biarritz,fr,43.48643904244932,-1.5562176704406738,5.0,,,,,,False,False,False,1495.72,747.86,EUR,True,2026-09-30T22:00:00Z,0.8,2026-06-03 14:31:46.059707+00:00,2026-10-02,2026-10-04,Biarritz,2
58644,mirano,Hôtel Mirano,Hôtel,204,https://www.booking.com/hotel/fr/mirano.fr.html,"[""https://www.booking.com/xdata/images/hotel/square600/299318579.jpg?k=e25930b9f0747b59272efb068a10b4f8e4910a18dc815d915908242dfb51c233&o=""]",11 Avenue Pasteur,Biarritz,fr,43.4743655607644,-1.55264899134636,3.0,8.7,366.0,Superbe,,,True,False,False,243.8,121.9,EUR,True,,0.9,2026-06-03 14:31:46.059709+00:00,2026-10-02,2026-10-04,Biarritz,2
50984,hotelanjou,Alfred Hotels Les Halles,Hôtel,204,https://www.booking.com/hotel/fr/hotelanjou.fr.html,"[""https://www.booking.com/xdata/images/hotel/square600/695379938.jpg?k=41baa9a099e0a12b85bc3fe785f25b2cb5cf680a860644f9af936f2d79a795d0&o=""]","18, Rue Gambetta",Biarritz,fr,43.481694404236,-1.5630841255188,3.0,9.1,1280.0,Fabuleux ,,9.8,True,False,False,373.13,186.565,EUR,True,,,2026-06-03 14:31:46.059710+00:00,2026-10-02,2026-10-04,Biarritz,2
308172,de-silhouette-biarritz,Hotel de Silhouette,Hôtel,204,https://www.booking.com/hotel/fr/de-silhouette-biarritz.fr.html,"[""https://www.booking.com/xdata/images/hotel/square600/468992735.jpg?k=8059b94ee8ed416a8c1424fad3bb217e4a3c4273645faa8de2fb2edd69aa10b3&o=""]",30 rue Gambetta,Biarritz,fr,43.4810677260474,-1.56320750713348,4.0,9.2,606.0,Fabuleux ,,9.8,True,False,False,636.9601,318.48005,EUR,True,2026-09-26T22:00:00Z,,2026-06-03 14:31:46.059711+00:00,2026-10-02,2026-10-04,Biarritz,2
53617,residence-pierre-vacances-haguna,Résidence Pierre & Vacances Premium Haguna,Apparthôtel,219,https://www.booking.com/hotel/fr/residence-pierre-vacances-haguna.fr.html,"[""https://www.booking.com/xdata/images/hotel/square600/757482792.jpg?k=ce3fc68f3ae445f8802583b5721371650b2ae2e16eeb86e0b1d68805eb943102&o=""]","17, Avenue De La Reine Victoria",Biarritz,fr,43.4853453565997,-1.55258059501648,4.0,8.6,904.0,Superbe,,9.4,False,False,False,246.96,123.48,EUR,True,,0.9,2026-06-03 14:31:46.059712+00:00,2026-10-02,2026-10-04,Biarritz,2
180270,best-western-kemaris,Hôtel Kemaris,Hôtel,204,https://www.booking.com/hotel/fr/best-western-kemaris.fr.html,"[""https://www.booking.com/xdata/images/hotel/square600/579594538.jpg?k=63dfdee3d8698a50e13df54d8a2031786254ff5fbf699ac8f429702970ece7af&o=""]",35 Avenue du Maréchal Joffre,Biarritz,fr,43.4765027047949,-1.56245648860931,3.0,8.4,2157.0,Très bien,,,True,False,False,407.8,203.9,EUR,True,,,2026-06-03 14:31:46.059713+00:00,2026-10-02,2026-10-04,Biarritz,2
222547,mgallery-hotel-biarritz,Le Talaia Hôtel & Spa Biarritz - MGallery Collection,Hôtel,204,https://www.booking.com/hotel/fr/mgallery-hotel-biarritz.fr.html,"[""https://www.booking.com/xdata/images/hotel/square600/873092880.jpg?k=cfbddd4ddd8dc6ca0f0d7a336dc0252b4610898aa9e1f3993afd178dc53796b7&o=""]",1 Carrefour Helianthe,Biarritz,fr,43.4782719225838,-1.56469076871872,4.0,9.0,387.0,Fabuleux ,,9.6,True,False,False,835.96,417.98,EUR,True,,,2026-06-03 14:31:46.059714+00:00,2026-10-02,2026-10-04,Biarritz,2
775722,chambre-d-ha-tes-arima,Chambre d'Hôtes Arima,Maison,216,https://www.booking.com/hotel/fr/chambre-d-ha-tes-arima.fr.html,"[""https://www.booking.com/xdata/images/hotel/square600/837082208.jpg?k=4cb480fdc6fbdff0283ecf4b8237a20ab994d88b5ee3ea8c9b8c045b5b7b0b40&o=""]","13 Bis, avenue du Parc Bon Air",Biarritz,fr,43.4829534383894,-1.55128240585327,3.0,9.2,133.0,Fabuleux ,,9.7,False,False,False,324.6,162.3,EUR,True,2026-09-01T22:00:00Z,0.8,2026-06-03 14:31:46.059715+00:00,2026-10-02,2026-10-04,Biarritz,2
236640,7b,Hotel Villa Koegui Biarritz,Hôtel,204,https://www.booking.com/hotel/fr/7b.fr.html,"[""https://www.booking.com/xdata/images/hotel/square600/263644448.jpg?k=d2f7a7386917e4f4b50af99eb5c191a978ba3b0cdd63366491f04d178b889132&o=""]","7, rue de Gascogne",Biarritz,fr,43.4807086481932,-1.55810058116913,4.0,8.8,717.0,Superbe,,9.6,True,False,False,435.96,217.98,EUR,True,,,2026-06-03 14:31:46.059716+00:00,2026-10-02,2026-10-04,Biarritz,2
59010,georges-vi,Alfred Hotels Port-Vieux,Hôtel,204,https://www.booking.com/hotel/fr/georges-vi.fr.html,"[""https://www.booking.com/xdata/images/hotel/square600/702426227.jpg?k=5a0848948f47183011237fb6efce4629ac3ffbd49286a8b62d360521e991cafd&o=""]",Rue du Port Vieux,Biarritz,fr,43.4821897089505,-1.56635910272598,3.0,9.2,1233.0,Fabuleux ,,9.8,True,False,False,413.72,206.86,EUR,True,,0.5,2026-06-03 14:31:46.059717+00:00,2026-10-02,2026-10-04,Biarritz,2
53547,saint-julien,Hotel Saint Julien,Hôtel,204,https://www.booking.com/hotel/fr/saint-julien.fr.html,"[""https://www.booking.com/xdata/images/hotel/square600/858811119.jpg?k=416deacddc0698ba81fee6a922e89c2724de583c6f1eaf40469e3521e64989a7&o=""]",20 Avenue Carnot,Biarritz,fr,43.479138995555,-1.56227543950081,3.0,9.2,605.0,Fabuleux ,,9.6,True,False,False,476.8001,238.40005,EUR,True,,,2026-06-03 14:31:46.059718+00:00,2026-10-02,2026-10-04,Biarritz,2
57051,reginaexperimentalbiarritz,Regina Experimental Biarritz,Hôtel,204,https://www.booking.com/hotel/fr/reginaexperimentalbiarritz.fr.html,"[""https://www.booking.com/xdata/images/hotel/square600/595771691.jpg?k=cea848f7e74dd82c79205760c2a5fd863cf0476b0e06bedee6707db6c89a21d5&o=""]",52 avenue de l'Impératrice,Biarritz,fr,43.4910753110406,-1.55189126729965,5.0,8.7,821.0,Superbe,,,True,False,False,992.16,496.08,EUR,True,,1.4,2026-06-03 14:31:46.059719+00:00,2026-10-02,2026-10-04,Biarritz,2
287433,maitagaria,Hôtel Maïtagaria,Hôtel,204,https://www.booking.com/hotel/fr/maitagaria.fr.html,"[""https://www.booking.com/xdata/images/hotel/square600/19595213.jpg?k=5ac6b926dc2cd146b14fd1a42144b06ea8f1ac60fff6faa60394c03df7d24169&o=""]",34 Avenue Carnot,Biarritz,fr,43.4789774542835,-1.56064063310623,3.0,8.5,510.0,Très bien,,9.5,True,False,False,379.4,189.7,EUR,True,,,2026-06-03 14:31:46.059720+00:00,2026-10-02,2026-10-04,Biarritz,2
53294,campanile-biarritz,Campanile Biarritz,Hôtel,204,https://www.booking.com/hotel/fr/campanile-biarritz.fr.html,"[""https://www.booking.com/xdata/images/hotel/square600/818876303.jpg?k=97054da5c5a579c7c6d0487c6861724b542dcbbdc6ff265dc9fc23ab859d12ba&o=""]",43 rue Chapelet - Boulevard Marcel Dassault RN 10 Rond Point du mousse,Biarritz,fr,43.4663875845881,-1.54004395008087,3.0,7.1,2902.0,Bien ,,,False,False,False,179.8001,89.90005,EUR,True,2026-09-16T22:00:00Z,2.3,2026-06-03 14:31:46.059721+00:00,2026-10-02,2026-10-04,Biarritz,2
209294,karitza-biarritz,Hôtel Jules Verne Biarritz,Hôtel,204,https://www.booking.com/hotel/fr/karitza-biarritz.fr.html,"[""https://www.booking.com/xdata/images/hotel/square600/311705628.jpg?k=aa29f05b02bc09524e612e26a0bd35c5f689f21b76c92a397a722474139ebc0a&o=""]","2, rue Guy Petit",Biarritz,fr,43.4785395390259,-1.55539959669113,4.0,8.4,2086.0,Très bien,,,True,False,False,534.96,267.48,EUR,True,,,2026-06-03 14:31:46.059722+00:00,2026-10-02,2026-10-04,Biarritz,2
16048043,arley-large-beach-city-center-swimming-pool,"Arley- Large beach, city center, swimming pool-",Appartement,201,https://www.booking.com/hotel/fr/arley-large-beach-city-center-swimming-pool.fr.html,"[""https://www.booking.com/xdata/images/hotel/square600/841698286.jpg?k=9799b6ca6edd33ba190471db653eb4b706e0dad667a99d02ad21c8705359a328&o=""]",111 21 Avenue Edouard VII,Biarritz,fr,43.4846667,-1.5573778,,0.0,0.0,,,,False,False,False,206.976,103.488,EUR,True,,0.5,2026-06-03 14:31:46.059723+00:00,2026-10-02,2026-10-04,Biarritz,2
5105047,la-maison-du-marquis-biarritz,Maison Cuevas,Maison,216,https://www.booking.com/hotel/fr/la-maison-du-marquis-biarritz.fr.html,"[""https://www.booking.com/xdata/images/hotel/square600/685830952.jpg?k=21ee36e3bf94b2acd115806bcf1b6a1a7c4a12c9f3bb0f736faa90bfcd425c10&o=""]",41 Rue de l'Estagnas,Biarritz,fr,43.48439,-1.54113,4.0,9.6,107.0,Exceptionnel,,,True,True,False,404.6,202.3,EUR,True,2026-09-01T22:00:00Z,1.6,2026-06-03 14:31:46.059724+00:00,2026-10-02,2026-10-04,Biarritz,2
54859,les-alizes,Hôtel Les Alizés,Hôtel,204,https://www.booking.com/hotel/fr/les-alizes.fr.html,"[""https://www.booking.com/xdata/images/hotel/square600/668037.jpg?k=bde46dbbb0a0aed56ce7df1d417db0a9af68c2ed7b292d2c062e7c54ef64feee&o=""]",13 rue du Port Vieux,Biarritz,fr,43.4821449468053,-1.5662893652916,2.0,7.5,1259.0,Bien ,,9.3,False,False,False,254.66,127.33,EUR,True,,,2026-06-03 14:31:46.059726+00:00,2026-10-02,2026-10-04,Biarritz,2
6399756,les-tourelles-biarritz,Les Tourelles,Maison,216,https://www.booking.com/hotel/fr/les-tourelles-biarritz.fr.html,"[""https://www.booking.com/xdata/images/hotel/square600/253259700.jpg?k=d10fb8d9a3ad981a8d8029c99e38bb6adb76e05425bc65c1234a56fffa9fbd09&o=""]",37 Avenue de Verdun,Biarritz,fr,43.481942,-1.555088,4.0,8.8,107.0,Superbe,,9.8,True,False,False,383.66,191.83,EUR,True,,,2026-06-03 14:31:46.059726+00:00,2026-10-02,2026-10-04,Biarritz,2
13844355,studio-restaurant-ltbla-table-basque,Studio Hôtel-Restaurant LTB La Table Basque,Apparthôtel,219,https://www.booking.com/hotel/fr/studio-restaurant-ltbla-table-basque.fr.html,"[""https://www.booking.com/xdata/images/hotel/square600/664415471.jpg?k=4fa584845e230ddea3edd23cc337f6e9e270ae1d7d5751990fda626c4ffc7927&o=""]",04 Avenue de la Marne,Biarritz,fr,43.484033,-1.5567594,3.0,9.1,57.0,Fabuleux ,,9.8,False,False,False,354.5834,177.2917,EUR,True,2026-09-17T22:00:00Z,0.5,2026-06-03 14:31:46.059727+00:00,2026-10-02,2026-10-04,Biarritz,2
57114,biarritz-centre-plaza,Hotel Plaza Biarritz Plage - Handwritten Collection,Hôtel,204,https://www.booking.com/hotel/fr/biarritz-centre-plaza.fr.html,"[""https://www.booking.com/xdata/images/hotel/square600/876248905.jpg?k=3730db1f8a7fbc67d3dc7bdb2b4cf6e8bdb902dc3cac99580ba5de35edbd3dac&o=""]",10 Avenue Edouard VII,Biarritz,fr,43.4828893564315,-1.55857264995575,4.0,8.7,976.0,Superbe,,9.7,False,False,False,456.96,228.48,EUR,True,,,2026-06-03 14:31:46.059728+00:00,2026-10-02,2026-10-04,Biarritz,2
9396048,superb-top-floor-studio-biarritz-center,"Superb top floor studio, Biarritz center.",Appartement,201,https://www.booking.com/hotel/fr/superb-top-floor-studio-biarritz-center.fr.html,"[""https://www.booking.com/xdata/images/hotel/square600/414827280.jpg?k=e9fe3432ae63be4809d7027959af25113207f7137b9d24f74675eab845d4554e&o=""]",54 Avenue Edouard VII,Biarritz,fr,43.484249146647,-1.557227387836,3.0,8.6,24.0,Superbe,,9.8,True,False,False,459.976,229.988,EUR,True,,0.5,2026-06-03 14:31:46.059729+00:00,2026-10-02,2026-10-04,Biarritz,2
57483,de-l-ocean,Hotel de l'Océan et restaurant - Coeur de ville,Hôtel,204,https://www.booking.com/hotel/fr/de-l-ocean.fr.html,"[""https://www.booking.com/xdata/images/hotel/square600/783913715.jpg?k=8efa400a25c28342dd4faa2c3f7a2f5c944e650d3079a705f207623db78d5bff&o=""]",9 Place Sainte-Eugénie,Biarritz,fr,43.4825740781801,-1.56374394893646,3.0,8.0,551.0,Très bien,,9.6,True,False,False,573.8,286.9,EUR,True,,,2026-06-03 14:31:46.059730+00:00,2026-10-02,2026-10-04,Biarritz,2
183969,mercure-le-president-biarritz-centre,Mercure Président Biarritz Plage,Hôtel,204,https://www.booking.com/hotel/fr/mercure-le-president-biarritz-centre.fr.html,"[""https://www.booking.com/xdata/images/hotel/square600/763634563.jpg?k=5ca9322edd762c667fcef129a4635a762f54eb8ce37ddedf1d1af1acb3c0f960&o=""]",18 Place Georges Clémenceau,Biarritz,fr,43.4818646960989,-1.55975818634033,4.0,8.4,984.0,Très bien,,9.5,False,False,False,422.96,211.48,EUR,True,,,2026-06-03 14:31:46.059731+00:00,2026-10-02,2026-10-04,Biarritz,2
54575,premiere-classe-biarritz,Premiere Classe Biarritz,Hôtel,204,https://www.booking.com/hotel/fr/premiere-classe-biarritz.fr.html,"[""https://www.booking.com/xdata/images/hotel/square600/825622819.jpg?k=e224b44a550207e1d54228c041469c308d95bb1f3eb031c9463b24a701d960ed&o=""]",41 rue Chapelet - Bvd Dassault - Rond-point du Mousse,Biarritz,fr,43.4663291839057,-1.54057502746582,,5.4,3308.0,Note,,,False,False,False,127.9636,63.9818,EUR,True,2026-09-16T22:00:00Z,2.3,2026-06-03 14:31:46.059732+00:00,2026-10-02,2026-10-04,Biarritz,2
209298,citotelmarbella,Hotel Marbella,Hôtel,204,https://www.booking.com/hotel/fr/citotelmarbella.fr.html,"[""https://www.booking.com/xdata/images/hotel/square600/444039381.jpg?k=d0a96ceeedf53cfbced057f80686fcece8e841b8ae366db58ffb51166cd98f48&o=""]",11 Rue Du Port Vieux,Biarritz,fr,43.4820486107716,-1.56584948301315,3.0,8.0,1373.0,Très bien,,9.5,False,False,False,315.7,157.85,EUR,True,,,2026-06-03 14:31:46.059733+00:00,2026-10-02,2026-10-04,Biarritz,2
11797335,la-suite-biarritz,Hôtel La Suite,Hôtel,204,https://www.booking.com/hotel/fr/la-suite-biarritz.fr.html,"[""https://www.booking.com/xdata/images/hotel/square600/587455115.jpg?k=9607f0b183b237bca3e594267b5403e440b574982f6e0f351ac1aaafe497ce59&o=""]",5 Avenue Edouard VII,Biarritz,fr,43.4836409,-1.558741,4.0,8.3,311.0,Très bien,,9.3,False,False,False,498.96,249.48,EUR,True,2026-09-29T22:00:00Z,,2026-06-03 14:31:46.059734+00:00,2026-10-02,2026-10-04,Biarritz,2
347187,palym-biarritz,Hôtel PALMITO,Hôtel,204,https://www.booking.com/hotel/fr/palym-biarritz.fr.html,"[""https://www.booking.com/xdata/images/hotel/square600/415604995.jpg?k=946d2818d1fbbfca0f16eb9eeb1e8b2ab87489c1b8efbf4f9b06b6c0e1cf6326&o=""]",7 rue du Port Vieux ,Biarritz,fr,43.4820505569556,-1.56574487686157,3.0,8.5,1400.0,Très bien,,9.6,True,True,False,313.58,156.79,EUR,True,,,2026-06-03 14:31:46.059736+00:00,2026-10-02,2026-10-04,Biarritz,2
13551157,surf-sea-and-sun,Surf Sea and Sun,Appartement,201,https://www.booking.com/hotel/fr/surf-sea-and-sun.fr.html,"[""https://www.booking.com/xdata/images/hotel/square600/821948228.jpg?k=5f17649e3f6a80b3ca4697fdf9578456aaadcdd62a795d35400f625b63bbe84e&o=""]",17 Avenue du Docteur Claisse,Biarritz,fr,43.4847376,-1.5534724,4.0,9.1,17.0,Fabuleux ,,9.7,True,False,False,844.1128,422.0564,EUR,True,,0.8,2026-06-03 14:31:46.059737+00:00,2026-10-02,2026-10-04,Biarritz,2
11144003,victoria-surf-studio-d-architecte,Victoria Surf 401 - Confort & luxe Grande Plage,Appartement,201,https://www.booking.com/hotel/fr/victoria-surf-studio-d-architecte.fr.html,"[""https://www.booking.com/xdata/images/hotel/square600/593033231.jpg?k=1f6cd7151779dcb05b015d8c4f814556b950da92c7d724510e7ca9df10aeaef6&o=""]",4ème étage Appartement 401 21t Avenue Edouard VII,Biarritz,fr,43.4847531,-1.5574497,3.0,9.0,59.0,Fabuleux ,,9.7,False,False,False,325.6,162.8,EUR,True,2026-09-17T22:00:00Z,0.5,2026-06-03 14:31:46.059738+00:00,2026-10-02,2026-10-04,Biarritz,2
5342894,sandy-close-to-the-center-the-beach-in-biarritz,SANDY - appartement avec 2 chambres,Appartement,201,https://www.booking.com/hotel/fr/sandy-close-to-the-center-the-beach-in-biarritz.fr.html,"[""https://www.booking.com/xdata/images/hotel/square600/257958548.jpg?k=2eec1a195c1c9a187e86d71dcd838d68fd6055591b88bc13325ac8cc3e5b9845&o=""]",7 Rue Ernest Renan 1er étage droite,Biarritz,fr,43.4763498,-1.5515676,3.0,7.3,31.0,Bien ,,,True,False,False,447.2023,223.60115,EUR,True,2026-09-17T22:00:00Z,0.9,2026-06-03 14:31:46.059739+00:00,2026-10-02,2026-10-04,Biarritz,2
10415482,maison-maite-au-coeur-de-biarritz,"Maison MAÏTÉ, au cœur de Biarritz",Maison,216,https://www.booking.com/hotel/fr/maison-maite-au-coeur-de-biarritz.fr.html,"[""https://www.booking.com/xdata/images/hotel/square600/481879080.jpg?k=89c2ca27816a71cea2091c9180e87813429946b2740d418666b64953e60b4c9b&o=""]",5 Rue d'Alger,Biarritz,fr,43.480273111845,-1.559517114314,4.0,9.5,136.0,Exceptionnel,,9.9,False,False,False,433.936,216.968,EUR,True,2026-09-01T22:00:00Z,,2026-06-03 14:31:46.059740+00:00,2026-10-02,2026-10-04,Biarritz,2
209301,hotellebiarritz,ibis Styles Biarritz Plage,Hôtel,204,https://www.booking.com/hotel/fr/hotellebiarritz.fr.html,"[""https://www.booking.com/xdata/images/hotel/square600/878625524.jpg?k=9793801ede94a1cc02c0701b3ddfe5cf2ecf89ceacdb7f63b6ecbcd34ee9b153&o=""]",30 Avenue de La Milady,Biarritz,fr,43.4688987605589,-1.56856119632721,3.0,8.5,1399.0,Très bien,,,False,False,False,410.0,205.0,EUR,True,,1.4,2026-06-03 14:31:46.059741+00:00,2026-10-02,2026-10-04,Biarritz,2
209320,aubergelerelais,Urban Style Biarritz Le Relais,Hôtel,204,https://www.booking.com/hotel/fr/aubergelerelais.fr.html,"[""https://www.booking.com/xdata/images/hotel/square600/464567716.jpg?k=c8c009fd8686002a07a4cdb672fdbc0e20bd44054163149f95a8a056bbbb6a13&o=""]",44 Avenue de la Marne,Biarritz,fr,43.4840570393269,-1.54899716377258,3.0,8.3,235.0,Très bien,,,False,False,False,283.8,141.9,EUR,True,,1.0,2026-06-03 14:31:46.059742+00:00,2026-10-02,2026-10-04,Biarritz,2
10257482,agur-maitea,AGUR MAITEA,Appartement,201,https://www.booking.com/hotel/fr/agur-maitea.fr.html,"[""https://www.booking.com/xdata/images/hotel/square600/468949980.jpg?k=31835c3038888fd1bd8898964f5779e1cb27d6329e87b7651f985ca8520aa783&o=""]",Impasse des Mimosas,Biarritz,fr,43.486730742851,-1.550958868752,3.0,8.8,78.0,Superbe,,9.8,False,False,False,164.068,82.034,EUR,True,,1.1,2026-06-03 14:31:46.059743+00:00,2026-10-02,2026-10-04,Biarritz,2
9391185,lovely-studio-with-wonderful-view-on-the-sea-welkeys,Studio Roche Ronde - Welkeys,Appartement,201,https://www.booking.com/hotel/fr/lovely-studio-with-wonderful-view-on-the-sea-welkeys.fr.html,"[""https://www.booking.com/xdata/images/hotel/square600/421099076.jpg?k=affebc86016e4815cfacc4a02cb89f894f3326f1f410640153246d755e0c242c&o=""]",1 rue du Prince Impérial,Biarritz,fr,43.487999,-1.5541164,3.0,8.3,20.0,Très bien,,,True,False,False,480.5239,240.26195,EUR,True,,1.0,2026-06-03 14:31:46.059744+00:00,2026-10-02,2026-10-04,Biarritz,2
7123064,pop-keyweek-apt-3-bedrooms-with-terrace-parking-biarritz-city-center,POP KEYWEEK Apt 3 bedrooms with terrace & parking Biarritz city center,Appartement,201,https://www.booking.com/hotel/fr/pop-keyweek-apt-3-bedrooms-with-terrace-parking-biarritz-city-center.fr.html,"[""https://www.booking.com/xdata/images/hotel/square600/288099542.jpg?k=dfd8a6a35e5d94570a4e7e0201fbbf03d0d3835d1f850b41615c22415c11bd6c&o=""]",13 rue Jean Bart,Biarritz,fr,43.4808537,-1.5569744,4.0,9.0,5.0,Fabuleux ,,9.5,True,False,False,1479.25,739.625,EUR,True,,,2026-06-03 14:31:46.059745+00:00,2026-10-02,2026-10-04,Biarritz,2
5449926,seafront-apartment-with-large-terrace-and-parking-in-biarritz,BLUE MOON KEYWEEK Seafront Apt with large Terrace and Parking Biarritz,Appartement,201,https://www.booking.com/hotel/fr/seafront-apartment-with-large-terrace-and-parking-in-biarritz.fr.html,"[""https://www.booking.com/xdata/images/hotel/square600/523539586.jpg?k=92edc418cbaef6e47b536f5bb3c52347136a4a53543e08dbed8ce415d71b3297&o=""]",Rue Monhau,Biarritz,fr,43.482548,-1.560272,4.0,0.0,0.0,,,,True,False,False,1520.78,760.39,EUR,True,,,2026-06-03 14:31:46.059746+00:00,2026-10-02,2026-10-04,Biarritz,2
6194630,imperial-biarritz,IMPERIAL Apartment in the center of Biarritz close to the beach,Appartement,201,https://www.booking.com/hotel/fr/imperial-biarritz.fr.html,"[""https://www.booking.com/xdata/images/hotel/square600/242405914.jpg?k=88c84f10eee3bacffe214b0f0ce1865890b7efcc22503025b2cbeb323a29022b&o=""]",3 Avenue Reine Victoria 5ème étage,Biarritz,fr,43.4831519,-1.558626,4.0,8.7,14.0,Superbe,,9.5,True,False,False,1334.7,667.35,EUR,True,,,2026-06-03 14:31:46.059747+00:00,2026-10-02,2026-10-04,Biarritz,2
7415477,coast-keyweek-duplex-apartment-in-the-city-center-with-sea-view,COAST KEYWEEK Duplex apartment in the city center with sea view,Appartement,201,https://www.booking.com/hotel/fr/coast-keyweek-duplex-apartment-in-the-city-center-with-sea-view.fr.html,"[""https://www.booking.com/xdata/images/hotel/square600/303583926.jpg?k=ba9db328d064d66ff44c31d79c7be3d46419e2d8414a67a434a1d06f544ec5fc&o=""]",3 avenue Louis Barthou,Biarritz,fr,43.4823128,-1.5583363,4.0,9.0,3.0,Fabuleux ,,,True,False,False,1671.56,835.78,EUR,True,,,2026-06-03 14:31:46.059748+00:00,2026-10-02,2026-10-04,Biarritz,2
6523937,london-avenue-keyweek-apartment-biarritz-center-with-balcony-and-parking,LONDON AVENUE KEYWEEK apartment Biarritz center with balcony and parking,Appartement,201,https://www.booking.com/hotel/fr/london-avenue-keyweek-apartment-biarritz-center-with-balcony-and-parking.fr.html,"[""https://www.booking.com/xdata/images/hotel/square600/258349290.jpg?k=27e62418408fde7f13962e91ae01038df00169a93a8d2d79dd84a89abc2ffaff&o=""]",avenue de londres,biarritz,fr,43.4784928359119,-1.56276981463012,4.0,6.5,2.0,Note,,,True,False,False,1419.97,709.985,EUR,True,,,2026-06-03 14:31:46.059749+00:00,2026-10-02,2026-10-04,Biarritz,2
6218798,youcca-izokina-2-bedroom-apartment-in-biarritz,IZOKINA KEYWEEK 2 bedroom Apartment in Biarritz,Appartement,201,https://www.booking.com/hotel/fr/youcca-izokina-2-bedroom-apartment-in-biarritz.fr.html,"[""https://www.booking.com/xdata/images/hotel/square600/243314426.jpg?k=b8c1b2563c5c537bb87fc5b8e461bfd9af527275f4ee4b3bc51dbc68b8a5ee2f&o=""]","Reine Nathalie, 2",Biarritz,fr,43.484882,-1.549489,4.0,9.0,3.0,Fabuleux ,,10.0,True,False,False,1339.2,669.6,EUR,True,,1.0,2026-06-03 14:31:46.059751+00:00,2026-10-02,2026-10-04,Biarritz,2
5449770,vintage-duplex-apartment-with-parking-in-biarritz-center,L'ATELIER KEYWEEK Vintage Duplex Apartment with Parking Biarritz Center,Appartement,201,https://www.booking.com/hotel/fr/vintage-duplex-apartment-with-parking-in-biarritz-center.fr.html,"[""https://www.booking.com/xdata/images/hotel/square600/223891181.jpg?k=5934b5910704893a0ccb036406ef0954fd58a251ee24ee6a01a91426f09a4e95&o=""]",19 Rue Duler,Biarritz,fr,43.479885,-1.562508,4.0,4.5,2.0,Note,,,True,False,False,1577.28,788.64,EUR,True,,,2026-06-03 14:31:46.059752+00:00,2026-10-02,2026-10-04,Biarritz,2
3815272,loft-appartement-5-chambres,LOFT KEYWEEK Superbe Loft Contemporain proche de la plage à Biarritz,Appartement,201,https://www.booking.com/hotel/fr/loft-appartement-5-chambres.fr.html,"[""https://www.booking.com/xdata/images/hotel/square600/268437686.jpg?k=01d3d6395cf616c4c96818fe0fff7f5aeb4dbe0481826a606c8cab6c1621eaac&o=""]",15 Place Georges Clemenceau,Biarritz,fr,43.482727,-1.560406,4.0,8.0,1.0,Très bien,,10.0,True,False,False,2813.14,1406.57,EUR,True,,,2026-06-03 14:31:46.059753+00:00,2026-10-02,2026-10-04,Biarritz,2
11140070,biarritz-residence-victoria-surf-vue-ocean,Biarritz - Residence Victoria surf - Face océan,Appartement,201,https://www.booking.com/hotel/fr/biarritz-residence-victoria-surf-vue-ocean.fr.html,"[""https://www.booking.com/xdata/images/hotel/square600/509301674.jpg?k=0eaac0db40e2038eee7d2eec63668e719ba2733a4f2b5d97ddb8a8325d0c5981&o=""]","Edouard VII, 21",Biarritz,fr,43.4845317,-1.5575036,3.0,7.7,12.0,Bien ,,9.5,False,False,False,322.256,161.128,EUR,True,,0.5,2026-06-03 14:31:46.059754+00:00,2026-10-02,2026-10-04,Biarritz,2
16317526,argia-large-beach-city-center-swimming-pool,"Argia - Large beach, city center, swimming pool-",Appartement,201,https://www.booking.com/hotel/fr/argia-large-beach-city-center-swimming-pool.fr.html,"[""https://www.booking.com/xdata/images/hotel/square600/862116700.jpg?k=f5c298970c933e3dc8728f3707a582142b6bee5e10da39dc0460c0e801043d07&o=""]",21 Avenue Edouard VII,Biarritz,fr,43.4846667,-1.5573778,,0.0,0.0,,,,False,False,False,260.1382,130.0691,EUR,True,,0.5,2026-06-03 14:31:46.059755+00:00,2026-10-02,2026-10-04,Biarritz,2
15938098,cosy-et-lumineux-t2-cote-des-basques-et-parking,Cosy et lumineux T2 côte des basques et Parking,Appartement,201,https://www.booking.com/hotel/fr/cosy-et-lumineux-t2-cote-des-basques-et-parking.fr.html,"[""https://www.booking.com/xdata/images/hotel/square600/832397101.jpg?k=452a2b21347cdb9840b85b9099c7e459794f249c88226bc6bf93921042a7ef74&o=""]",Villa Kalou 9 bis Rue de Pétricot,Biarritz,fr,43.4731384,-1.5596459,3.0,9.7,3.0,Exceptionnel,,10.0,False,False,False,253.0909,126.54545,EUR,True,2026-09-24T22:00:00Z,0.8,2026-06-03 14:31:46.059756+00:00,2026-10-02,2026-10-04,Biarritz,2
14653087,studio-moderne-avec-piscine-vue-panoramique-biarritz-fr-1-239-1143,"Studio moderne avec piscine, vue panoramique Biarritz - FR-1-239-1143",Appartement,201,https://www.booking.com/hotel/fr/studio-moderne-avec-piscine-vue-panoramique-biarritz-fr-1-239-1143.fr.html,"[""https://www.booking.com/xdata/images/hotel/square600/724104280.jpg?k=431c3ebdc5bf908cac337546e113e2380b71164a7842a1d530b35e01e7599e6f&o=""]",21 Avenue Édouard 7,Biarritz,fr,43.484667,-1.557378,2.0,0.0,0.0,,,,False,False,False,399.7917,199.89585,EUR,True,2026-09-17T22:00:00Z,0.5,2026-06-03 14:31:46.059757+00:00,2026-10-02,2026-10-04,Biarritz,2
10667084,haritzaga,HARITZAGA chambre d'hôte terrasse & jardin privé,Chambre d'hôtes,208,https://www.booking.com/hotel/fr/haritzaga.fr.html,"[""https://www.booking.com/xdata/images/hotel/square600/792360807.jpg?k=a6803180f871c13a30f333443567fa06a685e66ed7a9bf706f0fed30d761e20e&o=""]",3 Rue de Mérin,Biarritz,fr,43.454337254775,-1.548358072077,4.0,9.9,23.0,Exceptionnel,,,False,False,False,385.92,192.96,EUR,True,,3.1,2026-06-03 14:31:46.059758+00:00,2026-10-02,2026-10-04,Biarritz,2
11421436,nice-studio-near-the-beach-in-biarritz-welkeys,Studio Bon'Air - Welkeys,Appartement,201,https://www.booking.com/hotel/fr/nice-studio-near-the-beach-in-biarritz-welkeys.fr.html,"[""https://www.booking.com/xdata/images/hotel/square600/522364800.jpg?k=7379115e607bad0ecbb9317e36e16dfdc571210bfadccbfb1c9374ad8b09d640&o=""]",27 Rue Bon air,Biarritz,fr,43.4825359,-1.5528924,3.0,7.5,12.0,Bien ,,,False,False,False,327.1851,163.59255,EUR,True,,0.7,2026-06-03 14:31:46.059759+00:00,2026-10-02,2026-10-04,Biarritz,2
16090642,hondartza-front-de-mer-centre-ville-piscine,"Hondartza - Front de mer, centre ville, piscine -",Appartement,201,https://www.booking.com/hotel/fr/hondartza-front-de-mer-centre-ville-piscine.fr.html,"[""https://www.booking.com/xdata/images/hotel/square600/845045973.jpg?k=92ece5385b9b3602199cabc07fca2e67f0e98fafcd0027e9a42e50283bd4fb98&o=""]",7eme étage 21 Av. Edouard VII,Biarritz,fr,43.4848575541081,-1.55711685714721,,10.0,1.0,Exceptionnel,,10.0,False,False,False,308.4946,154.2473,EUR,True,2026-09-17T22:00:00Z,0.6,2026-06-03 14:31:46.059760+00:00,2026-10-02,2026-10-04,Biarritz,2
14370966,t2-apartment-beaurivage-milady-neighborhood,Appartement Biarritz plage Milady surf,Appartement,201,https://www.booking.com/hotel/fr/t2-apartment-beaurivage-milady-neighborhood.fr.html,"[""https://www.booking.com/xdata/images/hotel/square600/697291312.jpg?k=694fe96b98b5b2caf38ae24ce8874cd74580fd506f1a597b29a772f8296b5274&o=""]",18 Rue des Padouens,Biarritz,fr,43.4677076,-1.5679695,3.0,8.8,5.0,Superbe,,10.0,False,False,False,239.7274,119.8637,EUR,True,,1.5,2026-06-03 14:32:02.445736+00:00,2026-10-02,2026-10-04,Biarritz,2
13818867,studio-3-personnes-avec-terrasse-50-m-de-la-grande-plage-biarritz-surf,Studio 3 personnes avec terrasse 50 m de la Grande Plage Biarritz Surf,Appartement,201,https://www.booking.com/hotel/fr/studio-3-personnes-avec-terrasse-50-m-de-la-grande-plage-biarritz-surf.fr.html,"[""https://www.booking.com/xdata/images/hotel/square600/662500600.jpg?k=360e5650cdbeef86e448e73eeb313f7d4fde2a5d26fa7b21ef16719cabefacf4&o=""]",3 Rue Lavernis,Biarritz,fr,43.4825907,-1.5597136,3.0,8.0,6.0,Très bien,,10.0,False,False,False,474.2182,237.1091,EUR,True,2026-09-17T22:00:00Z,,2026-06-03 14:32:02.445786+00:00,2026-10-02,2026-10-04,Biarritz,2
13343846,appartement-mignon-plein-centre-biarritz,"Appartement Mignon, Plein Centre",Appartement,201,https://www.booking.com/hotel/fr/appartement-mignon-plein-centre-biarritz.fr.html,"[""https://www.booking.com/xdata/images/hotel/square600/852432713.jpg?k=1e6baf7198ccf02751771b9bb84116460713484f9937a304b2c1b8e510b42e72&o=""]",11 Rue Peyroloubilh,Biarritz,fr,43.4808425,-1.5641629,3.0,6.7,17.0,Note,,9.6,False,False,False,262.8714,131.4357,EUR,True,,,2026-06-03 14:32:02.445799+00:00,2026-10-02,2026-10-04,Biarritz,2
14730846,apartment-biarritz,Chez Britta Biarritz,Appartement,201,https://www.booking.com/hotel/fr/apartment-biarritz.fr.html,"[""https://www.booking.com/xdata/images/hotel/square600/728580466.jpg?k=098aa7f4493f21bc99c9fbe111686c1e5eb7aed04f4fa093c598a8062a107a0a&o=""]",3AV Mont Louis,Biarritz,fr,43.4791468331223,-1.55777635707755,4.0,9.4,7.0,Fabuleux ,,9.6,False,False,False,671.224,335.612,EUR,True,,,2026-06-03 14:32:02.446410+00:00,2026-10-02,2026-10-04,Biarritz,2
3902498,9-allee-les-jardins-de-valencia,Villa luxueuse avec piscine sur les hauts de Biarritz,Villa,213,https://www.booking.com/hotel/fr/9-allee-les-jardins-de-valencia.fr.html,"[""https://www.booking.com/xdata/images/hotel/square600/156293091.jpg?k=d26aba74207eab735ffc45f0828c154e43a82fd6ae0ea0a54645e7b16f95c803&o=""]",9 allée LES JARDINS DE VALENCIA,BIARRITZ,fr,43.4550897,-1.5497139,4.0,10.0,5.0,Exceptionnel,,9.5,False,False,False,1816.736,908.368,EUR,True,,2.9,2026-06-03 14:32:02.446413+00:00,2026-10-02,2026-10-04,Biarritz,2
15967016,studio-renove-vue-imprenable-ocean-fr-1-3-633,"Studio rénové, vue imprenable océan - FR-1-3-633",Appartement,201,https://www.booking.com/hotel/fr/studio-renove-vue-imprenable-ocean-fr-1-3-633.fr.html,"[""https://www.booking.com/xdata/images/hotel/square600/834603474.jpg?k=62dcb47e5e390bfbb60f8ed122d82b8da3815fe2f214b3fcc6444f6ee47dd336&o=""]",25 avenue Edouard VII résidence le SAHEL 2eme étage,Biarritz,fr,43.485245,-1.557,3.0,0.0,0.0,,,,False,False,False,642.27,321.135,EUR,True,2026-09-01T22:00:00Z,0.6,2026-06-03 14:32:02.446415+00:00,2026-10-02,2026-10-04,Biarritz,2
1805512,le-california-biarritz,Le California,Appartement,201,https://www.booking.com/hotel/fr/le-california-biarritz.fr.html,"[""https://www.booking.com/xdata/images/hotel/square600/70618233.jpg?k=0dcb5273ec51a6550e2e0555be9d8cf6f70fb5b2af07b8bb6b9fd47f254ef520&o=""]","45, avenue de Verdun",Biarritz,fr,43.4819293,-1.55627506086535,4.0,9.0,13.0,Fabuleux ,,9.8,False,False,False,592.224,296.112,EUR,True,,,2026-06-03 14:32:02.446416+00:00,2026-10-02,2026-10-04,Biarritz,2
14592080,apartment-3p-with-pool-sea-view,Appartement 3P avec piscine & vue sur mer,Appartement,201,https://www.booking.com/hotel/fr/apartment-3p-with-pool-sea-view.fr.html,"[""https://www.booking.com/xdata/images/hotel/square600/736909560.jpg?k=f7d0924864f425986d73d4680fea1da53bee286c206e97695f97a488dd18ce5f&o=""]",19 Avenue Alphonse XIII,Biarritz,fr,43.491865,-1.550892,3.0,10.0,4.0,Exceptionnel,,10.0,False,False,False,812.854,406.427,EUR,True,,1.5,2026-06-03 14:32:02.446417+00:00,2026-10-02,2026-10-04,Biarritz,2
3309504,broquedis,Appartement HALLES,Appartement,201,https://www.booking.com/hotel/fr/broquedis.fr.html,"[""https://www.booking.com/xdata/images/hotel/square600/139297117.jpg?k=364958e9862ac44a3abb669956d7c371209634421a8a8a2e14ffea0b126a243c&o=""]",8 Rue Broquedis,Biarritz,fr,43.481316,-1.562383,,9.4,5.0,Fabuleux ,,10.0,False,False,False,888.224,444.112,EUR,True,2026-09-01T22:00:00Z,,2026-06-03 14:32:02.446418+00:00,2026-10-02,2026-10-04,Biarritz,2
11796976,lotissement,Appartement de charme - spa privé,Appartement,201,https://www.booking.com/hotel/fr/lotissement.fr.html,"[""https://www.booking.com/xdata/images/hotel/square600/852850131.jpg?k=6b30e364f1820de736c7ca325d0b44255bf072cab4aa47e3f376c0ea504b9324&o=""]",Allée Georges Braque 6,Biarritz,fr,43.4533787397676,-1.54416600624379,3.0,8.8,12.0,Superbe,,,False,False,False,351.1312,175.5656,EUR,True,2026-09-17T22:00:00Z,3.3,2026-06-03 14:32:02.446419+00:00,2026-10-02,2026-10-04,Biarritz,2
15375355,apartment-t2-halles-de-btz,Apartment T2 Halles de BTZ,Appartement,201,https://www.booking.com/hotel/fr/apartment-t2-halles-de-btz.fr.html,"[""https://www.booking.com/xdata/images/hotel/square600/785802636.jpg?k=31da5c752f9887461ce414a6e442a27397b3b206e567b67d93f9f5338ea0b5ef&o=""]",2 Rue Duler,Biarritz,fr,43.480073,-1.5636869,,8.5,2.0,Très bien,,10.0,False,False,False,308.736,154.368,EUR,True,,,2026-06-03 14:32:02.446420+00:00,2026-10-02,2026-10-04,Biarritz,2
12903934,studio-hypercentre-front-de-mer-grande-plage-piscine,Studio Hypercentre - FRONT DE MER - Grande Plage - piscine,Appartement,201,https://www.booking.com/hotel/fr/studio-hypercentre-front-de-mer-grande-plage-piscine.fr.html,"[""https://www.booking.com/xdata/images/hotel/square600/602802164.jpg?k=60989428f1f270076a68066f3d908476f8f9b583b14507ee45420c47abb44ec0&o=""]",21 TER Avenue Edouard VII,Biarritz,fr,43.4847155,-1.5573339,3.0,7.7,15.0,Bien ,,9.3,False,False,False,319.6364,159.8182,EUR,True,,0.5,2026-06-03 14:32:02.446421+00:00,2026-10-02,2026-10-04,Biarritz,2
11684172,nice-house-very-closed-to-the-beautiful-beach,Nice house very closed to the beautiful beach,Logement entier,220,https://www.booking.com/hotel/fr/nice-house-very-closed-to-the-beautiful-beach.fr.html,"[""https://www.booking.com/xdata/images/hotel/square600/534869921.jpg?k=6497cbad201e2630c47c2bed097a1d8d6e62341048c3bf1648864c0d511082ba&o=""]",1 Rue de l'Océan,Biarritz,fr,43.4758517,-1.5646899,4.0,8.2,6.0,Très bien,,9.5,False,False,False,1409.792,704.896,EUR,True,,0.6,2026-06-03 14:32:02.446422+00:00,2026-10-02,2026-10-04,Biarritz,2
4328189,le-rooftop-des-halles,Le Rooftop des Halles,Appartement,201,https://www.booking.com/hotel/fr/le-rooftop-des-halles.fr.html,"[""https://www.booking.com/xdata/images/hotel/square600/171293537.jpg?k=5511b5a1328283533bdb7b6e2159ce5fd65b955b32c179a2b2995022a24f83a8&o=""]",14 Rue du Centre,Biarritz,fr,43.4804115,-1.5623812,4.0,9.2,17.0,Fabuleux ,,10.0,False,False,False,447.4909,223.74545,EUR,True,,,2026-06-03 14:32:02.446423+00:00,2026-10-02,2026-10-04,Biarritz,2
14483299,appartement-hyper-centre-biarritz,Appartement hyper centre Biarritz,Appartement,201,https://www.booking.com/hotel/fr/appartement-hyper-centre-biarritz.fr.html,"[""https://www.booking.com/xdata/images/hotel/square600/705626497.jpg?k=3aaf1dd5590127ade1f98edef362602037528eb5bfc6dfebecda238ef19869da&o=""]",18 Avenue d'Ossuna,Biarritz,fr,43.4828005,-1.5562519,3.0,0.0,0.0,,,,False,False,False,333.8282,166.9141,EUR,True,,,2026-06-03 14:32:02.446424+00:00,2026-10-02,2026-10-04,Biarritz,2
16219565,appartement-charmant-avec-balcon-5-pers-fr-1-239-1155,Appartement charmant avec balcon - 5 pers. - FR-1-239-1155,Appartement,201,https://www.booking.com/hotel/fr/appartement-charmant-avec-balcon-5-pers-fr-1-239-1155.fr.html,"[""https://www.booking.com/xdata/images/hotel/square600/856653357.jpg?k=265ed06caad4e663d33a59aac24e456179282d6c6b57cf6fd43e06e1949bc2f1&o=""]",3 avenue de JUNKA,Biarritz,fr,43.786677,-1.40322,3.0,0.0,0.0,,,,False,False,False,309.67,154.835,EUR,True,2026-09-17T22:00:00Z,36.3,2026-06-03 14:32:02.446425+00:00,2026-10-02,2026-10-04,Biarritz,2
16013850,maison-atalaye,Maison Atalaye - Hôtel entièrement rénové,Hôtel,204,https://www.booking.com/hotel/fr/maison-atalaye.fr.html,"[""https://www.booking.com/xdata/images/hotel/square600/864078536.jpg?k=74a1e1073842163acb2bb8b4da94d4701b7607319c67305791a3ee36eaea738a&o=""]",6 Rue des Goélands,Biarritz,fr,43.4822208,-1.5645176,3.0,0.0,0.0,,,,False,False,False,408.62,204.31,EUR,True,,,2026-06-03 14:32:02.446426+00:00,2026-10-02,2026-10-04,Biarritz,2
14637926,chambre-calme-chez-l-habitant-a-biarritz,Studio océan Biarritz chez l'habitant,Maison de vacances,222,https://www.booking.com/hotel/fr/chambre-calme-chez-l-habitant-a-biarritz.fr.html,"[""https://www.booking.com/xdata/images/hotel/square600/720551765.jpg?k=24e0a54390317bd0f28c9687836bc32a3e443a0c413b8737ca14737778fd186d&o=""]",39 Rue de l'Océan,Biarritz,fr,43.476294,-1.5613087,,6.2,5.0,Note,,,False,False,False,334.0655,167.03275,EUR,True,2026-09-17T22:00:00Z,,2026-06-03 14:32:02.446427+00:00,2026-10-02,2026-10-04,Biarritz,2
14506688,apartment-2-rooms-with-terrace-near-ocean,Apartment 2 rooms with terrace near ocean,Appartement,201,https://www.booking.com/hotel/fr/apartment-2-rooms-with-terrace-near-ocean.fr.html,"[""https://www.booking.com/xdata/images/hotel/square600/792283740.jpg?k=80b143e022b33a78d7828043e1c63d72acb21ede9ddf604e49c55909a6f7a85f&o=""]",28 Rue de la Gendarmerie,Biarritz,fr,43.471163,-1.559922,3.0,0.0,0.0,,,,False,False,False,380.8453,190.42265,EUR,True,,1.0,2026-06-03 14:32:02.446429+00:00,2026-10-02,2026-10-04,Biarritz,2
1280297,belle-vue-apt,Belle Suite Apt,Appartement,201,https://www.booking.com/hotel/fr/belle-vue-apt.fr.html,"[""https://www.booking.com/xdata/images/hotel/square600/40794484.jpg?k=c6812b82311f8995f57546cae7f7fe6da829bf04e7205ef98aaf02c449d5e04a&o=""]",82 Rue de Madrid,Biarritz,fr,43.4667514350957,-1.57352488584445,3.0,6.9,11.0,Note,,,False,False,False,521.224,260.612,EUR,True,,1.8,2026-06-03 14:32:02.446430+00:00,2026-10-02,2026-10-04,Biarritz,2
1676302,rental-villa-maison-de-vacances-ile-de-re,Charmant studio en centre-ville avec piscine proche Grande Plage - FR-1-3-410,Appartement,201,https://www.booking.com/hotel/fr/rental-villa-maison-de-vacances-ile-de-re.fr.html,"[""https://www.booking.com/xdata/images/hotel/square600/408542871.jpg?k=18d46c86a8c5c59209229de724ce00b81c2685cf3b6ef90f9b6813a372bbb909&o=""]",21 Ter Avenue Edouard Vii - RÃ©sidence Victoria Surf - Hall Central 10Eme Ãtage - Appartement 1005 - ,Biarritz,fr,43.4849298,-1.5572697,,5.5,4.0,Note,,,False,False,False,515.13,257.565,EUR,True,2026-09-01T22:00:00Z,0.6,2026-06-03 14:32:02.446431+00:00,2026-10-02,2026-10-04,Biarritz,2
1731601,apartment-victoria-surf-415,Studio Front de Mer avec Piscine et Balcon à Biarritz - FR-1-3-412,Appartement,201,https://www.booking.com/hotel/fr/apartment-victoria-surf-415.fr.html,"[""https://www.booking.com/xdata/images/hotel/square600/403539647.jpg?k=13221480ef4d8970ce77652cb59edd72c95d53367c1277c869157f5d193eddc2&o=""]",21 Ter Avenue Edouard Vii - RÃ©sidence Victoria Surf -Hall Central 4Eme Ãtage - Appartement 415 - ,Biarritz,fr,43.4849498,-1.5572697,,6.0,8.0,Note,,,False,False,False,493.43,246.715,EUR,True,2026-09-01T22:00:00Z,0.6,2026-06-03 14:32:02.446432+00:00,2026-10-02,2026-10-04,Biarritz,2
11444106,appartement-biarritz-3-pieces-4-personnes-fr-1-3-601,"Appartement Lumineux 3étoiles, Quartier Calme, Proche Commerces et Plage - FR-1-3-601",Appartement,201,https://www.booking.com/hotel/fr/appartement-biarritz-3-pieces-4-personnes-fr-1-3-601.fr.html,"[""https://www.booking.com/xdata/images/hotel/square600/523514041.jpg?k=197b351b835fdaecb491070201d8d52e1076d107282b5ae78a81c6349644a6ad&o=""]",1 avenue des chenes 1er étage porte de gauche,Biarritz,fr,43.48097,-1.544053,3.0,0.0,0.0,,,,False,False,False,675.51,337.755,EUR,True,2026-09-01T22:00:00Z,1.3,2026-06-03 14:32:02.446433+00:00,2026-10-02,2026-10-04,Biarritz,2
11992466,appartement-biarritz-2-pieces-2-personnes-fr-1-3-607,"Appartement cosy à Biarritz, proche des commerces et plages, avec parking et balcon - FR-1-3-607",Appartement,201,https://www.booking.com/hotel/fr/appartement-biarritz-2-pieces-2-personnes-fr-1-3-607.fr.html,"[""https://www.booking.com/xdata/images/hotel/square600/552580676.jpg?k=8907a354265214abad24bd2c31b581a9bee9ae76a36950d449cf3bfeb3e5e476&o=""]","34 BIS AVENUE D ANGLET RESIDENCE LE LYCEE, LES AZALEES",Biarritz,fr,43.486465,-1.543083,3.0,0.0,0.0,,,,False,False,False,672.69,336.345,EUR,True,2026-09-01T22:00:00Z,1.6,2026-06-03 14:32:02.446461+00:00,2026-10-02,2026-10-04,Biarritz,2
4309830,cocoon-biarritz1,COCOON KEYWEEK Holiday House with lovely patio in Biarritz city center,Logement entier,220,https://www.booking.com/hotel/fr/cocoon-biarritz1.fr.html,"[""https://www.booking.com/xdata/images/hotel/square600/325243093.jpg?k=1bcffef9c1c247d12f8c719a1f38fa011b97868254de402610b26e8bc307db5b&o=""]",André Lamandé 4 bis,Biarritz,fr,43.482734,-1.5543266,3.0,7.3,3.0,Bien ,,,False,False,False,1138.25,569.125,EUR,True,,0.6,2026-06-03 14:32:02.446503+00:00,2026-10-02,2026-10-04,Biarritz,2
5448201,contemporary-villa-with-pool-fireplace-ocean-views-in-biarritz,MILADY KEYWEEK Villa with Pool Ocean Views in Biarritz,Villa,213,https://www.booking.com/hotel/fr/contemporary-villa-with-pool-fireplace-ocean-views-in-biarritz.fr.html,"[""https://www.booking.com/xdata/images/hotel/square600/383992972.jpg?k=30b52d79ae41122ec18b4944c023c5a21fe66582807c2baccc147bac73e8490d&o=""]",28 Rue de Cristobal,Biarritz,fr,43.464924,-1.566459,4.0,8.0,1.0,Très bien,,10.0,False,False,False,3087.77,1543.885,EUR,True,,1.8,2026-06-03 14:32:21.521419+00:00,2026-10-02,2026-10-04,Biarritz,2
16488196,maison-basque-biarritz-biarritz,Maison Cosy Bohème Chic Biarritz,Logement entier,220,https://www.booking.com/hotel/fr/maison-basque-biarritz-biarritz.fr.html,"[""https://www.booking.com/xdata/images/hotel/square600/876724058.jpg?k=1e2aefa8ac2fa3c4100dc2e40fa5458be277fb995aaf77afca46c25957280c2b&o=""]",84 Av. du Président J F Kennedy,Biarritz,fr,43.467601776123,-1.55478608608246,3.0,0.0,0.0,,,,False,False,False,1322.624,661.312,EUR,True,,1.5,2026-06-03 14:32:21.522092+00:00,2026-10-02,2026-10-04,Biarritz,2
11714565,appartement-biarritz-3-pieces-4-personnes-fr-1-3-604,Appartement Rénové Quartier des Halles Biarritz - FR-1-3-604,Appartement,201,https://www.booking.com/hotel/fr/appartement-biarritz-3-pieces-4-personnes-fr-1-3-604.fr.html,"[""https://www.booking.com/xdata/images/hotel/square600/536391574.jpg?k=28d2d3c9d5c3b532090ae04527d05aeb8270eac8623ba4c45ad5d1ed19ae9f23&o=""]","19 bis avenue victor hugo 2eme étage, porte de droite",Biarritz,fr,43.479538,-1.561794,3.0,6.4,7.0,Note,,10.0,False,False,False,924.13,462.065,EUR,True,2026-09-01T22:00:00Z,,2026-06-03 14:32:21.522098+00:00,2026-10-02,2026-10-04,Biarritz,2
13820030,maison-piscine-jardin-parking,Maison Piscine Jardin Parking,Logement entier,220,https://www.booking.com/hotel/fr/maison-piscine-jardin-parking.fr.html,"[""https://www.booking.com/xdata/images/hotel/square600/662594833.jpg?k=0f30662598f7aed1050382b040869ea37903e729d74adc94ebed912de6ab6057&o=""]",23 Avenue Voltaire,Biarritz,fr,43.47523526,-1.55014883,,0.0,0.0,,,,False,False,False,1228.193,614.0965,EUR,True,2026-09-17T22:00:00Z,1.0,2026-06-03 14:32:21.522100+00:00,2026-10-02,2026-10-04,Biarritz,2
5497992,aloe-central-appartement-with-terrace-and-garage-in-biarritz,ALOE KEYWEEK Architect Apartment with terrace and garage Biarritz,Appartement,201,https://www.booking.com/hotel/fr/aloe-central-appartement-with-terrace-and-garage-in-biarritz.fr.html,"[""https://www.booking.com/xdata/images/hotel/square600/221855972.jpg?k=60ee5157bdc2769040432cc6b49776cf125ea07030ef6d06b692ce67097ebfc4&o=""]",33 avenue du maréchal joffre,biarritz,fr,43.4767013,-1.56219820000001,4.0,0.0,0.0,,,,False,False,False,1827.7,913.85,EUR,True,,,2026-06-03 14:32:21.522101+00:00,2026-10-02,2026-10-04,Biarritz,2
5449471,bright-duplex-apartment-with-terrace-and-parking-in-biarritz-center,LES HALLES KEYWEEK Duplex with Terrace and Parking in Biarritz Center,Appartement,201,https://www.booking.com/hotel/fr/bright-duplex-apartment-with-terrace-and-parking-in-biarritz-center.fr.html,"[""https://www.booking.com/xdata/images/hotel/square600/523539405.jpg?k=3af50a9360a63cb920cc4f027896a21431a10d965d546c7e2f4b5fda6faf8f4d&o=""]",38 Rue Gambetta,Biarritz,fr,43.480827,-1.563275,4.0,8.5,2.0,Très bien,,,False,False,False,2167.37,1083.685,EUR,True,,,2026-06-03 14:32:21.522102+00:00,2026-10-02,2026-10-04,Biarritz,2
16539301,vila-elegante-au-oeuer-du-pays-basque,Vila élégante au œuer du Pays Basque,Villa,213,https://www.booking.com/hotel/fr/vila-elegante-au-oeuer-du-pays-basque.fr.html,"[""https://www.booking.com/xdata/images/hotel/square600/874142820.jpg?k=1464195c660712a9f7a3714edc26324623ddd3f1f4f9ca5fd5967c40f5d3f096&o=""]",105 Rue de Simonnet,Biarritz,fr,43.4680936,-1.5685613,,0.0,0.0,,,,False,False,False,1295.424,647.712,EUR,True,,1.5,2026-06-03 14:32:21.522103+00:00,2026-10-02,2026-10-04,Biarritz,2
14057499,eugenie-apt-with-balcony-and-sea-view-and-du-palais-in-biarritz,EUGENIE - Apt with balcony and sea view and Hotel du Palais in Biarritz,Appartement,201,https://www.booking.com/hotel/fr/eugenie-apt-with-balcony-and-sea-view-and-du-palais-in-biarritz.fr.html,"[""https://www.booking.com/xdata/images/hotel/square600/677722447.jpg?k=41f0d14b6ec460df61dd341a78d6c8b80faef3cd8cba6bb35c32f85478eb0401&o=""]",3 avenue reine victoria,Biarritz,fr,43.4831519,-1.558626,3.0,0.0,0.0,,,,False,False,False,2003.38,1001.69,EUR,True,,,2026-06-03 14:32:21.522104+00:00,2026-10-02,2026-10-04,Biarritz,2
10452973,studio-de-charme-biarritz,Mira Marvel - WIFI - Climatisation - 100m plage,Appartement,201,https://www.booking.com/hotel/fr/studio-de-charme-biarritz.fr.html,"[""https://www.booking.com/xdata/images/hotel/square600/479951935.jpg?k=2b3b928ff25530ef9107da12a732304315f1bd0801070c49782aa5663ea09a07&o=""]",11 Avenue de l'Impératrice,Biarritz,fr,43.4880615,-1.5536589,,9.1,18.0,Fabuleux ,,9.3,False,False,False,572.37,286.185,EUR,True,,1.0,2026-06-03 14:32:21.522105+00:00,2026-10-02,2026-10-04,Biarritz,2
11983158,appartement-3-chambres-biarritz-aguilera,appartement 3 chambres biarritz aguilera,Appartement,201,https://www.booking.com/hotel/fr/appartement-3-chambres-biarritz-aguilera.fr.html,"[""https://www.booking.com/xdata/images/hotel/square600/552024492.jpg?k=4b27222b4627ad004540741eb37372856a21f508d35364698c254bacad6d845f&o=""]",3 Rue Cino del Duca,Biarritz,fr,43.4816352,-1.5388137,,3.9,23.0,Note,,,False,False,False,465.8,232.9,EUR,True,,1.8,2026-06-03 14:32:21.522106+00:00,2026-10-02,2026-10-04,Biarritz,2
10272368,utopy-hostel-coast,COAST - Utopy Hostel,Auberge de jeunesse,203,https://www.booking.com/hotel/fr/utopy-hostel-coast.fr.html,"[""https://www.booking.com/xdata/images/hotel/square600/469856773.jpg?k=d0cfbea1dd0de3f2d92f286449e95bee7bb8c9a8e875c9fcb85b9c06318143da&o=""]",22 Rue Harispe,Biarritz,fr,43.4736157202633,-1.56564588954927,,8.6,457.0,Superbe,,9.3,True,False,False,176.0,88.0,EUR,True,2026-09-26T22:00:00Z,0.9,2026-06-03 14:32:21.522107+00:00,2026-10-02,2026-10-04,Biarritz,2
7968253,utopy-hostel-biarritz,GARDEN - Utopy Hostel,Auberge de jeunesse,203,https://www.booking.com/hotel/fr/utopy-hostel-biarritz.fr.html,"[""https://www.booking.com/xdata/images/hotel/square600/343082222.jpg?k=ca16f0dbbadca908e6b37722d7e08c572b3fc01a1356fb67d10b3d6890a0bf4c&o=""]",Batiment E 27 Avenue de Migron,Biarritz,fr,43.4724122741965,-1.5497660601883,,8.1,590.0,Très bien,,,True,False,False,140.0002,70.0001,EUR,True,2026-09-26T22:00:00Z,1.2,2026-06-03 14:32:21.522108+00:00,2026-10-02,2026-10-04,Biarritz,2
8462322,surf-hostel-biarritz,SURF HOSTEL BIARRITZ,Chambre d'hôtes,208,https://www.booking.com/hotel/fr/surf-hostel-biarritz.fr.html,"[""https://www.booking.com/xdata/images/hotel/square600/827527061.jpg?k=003e53bfb71cc8cf78a5c2107486d0ac3e5e11e51b8370f345de65e4d7368b43&o=""]",Domaine de Migron Bat E,Biarritz,fr,43.4729141,-1.5475989,,8.9,352.0,Superbe,,,False,False,False,234.6002,117.3001,EUR,True,,1.3,2026-06-03 14:32:21.522109+00:00,2026-10-02,2026-10-04,Biarritz,2
261483,le-gamaritz,Le Gamaritz,Hôtel,204,https://www.booking.com/hotel/fr/le-gamaritz.fr.html,"[""https://www.booking.com/xdata/images/hotel/square600/398600377.jpg?k=1f14312755abf3127369c9c41914c4edfa547d70a39eb4824eb6f9dde42402b1&o=""]",5 Perspective de la Côte des Basques,Biarritz,fr,43.481774198197215,-1.5665441751480103,3.0,,,,,,True,False,False,220.8000000000001,110.40000000000005,EUR,True,,,2026-06-03 14:32:54.940495+00:00,2026-10-09,2026-10-11,Biarritz,2
53885,la-maison-du-lierre,Hôtel & Espace Bien-être La Maison du Lierre,Hôtel,204,https://www.booking.com/hotel/fr/la-maison-du-lierre.fr.html,"[""https://www.booking.com/xdata/images/hotel/square600/116990212.jpg?k=cf66121d54b9ddd1cf18508e7a5f498e3b9854fcd1d4c7e6ae4e1a5a5d3862c6&o=""]",3 avenue du Jardin Public,Biarritz,fr,43.480133535313925,-1.5607613325119019,3.0,,,,,,True,False,False,285.8000000000001,142.90000000000006,EUR,True,,,2026-06-03 14:32:54.940521+00:00,2026-10-09,2026-10-11,Biarritz,2
171649,residence-mer-et-golf-eugenie,Résidence Mer & Golf Eugénie,Apparthôtel,219,https://www.booking.com/hotel/fr/residence-mer-et-golf-eugenie.fr.html,"[""https://www.booking.com/xdata/images/hotel/square600/159695170.jpg?k=cb393ba6399d6e926bd6adb2c3e8f96ef89848ee7f9300cc7b62c77ab47c2dbd&o=""]",54-56 Rue de Madrid,Biarritz,fr,43.46963652033791,-1.5694905817508698,4.0,,,,,,True,False,False,210.9600000000001,105.48000000000005,EUR,True,2026-09-08T22:00:00Z,1.4,2026-06-03 14:32:54.940524+00:00,2026-10-09,2026-10-11,Biarritz,2
54579,edouard-vii,Hotel Edouard VII,Hôtel,204,https://www.booking.com/hotel/fr/edouard-vii.fr.html,"[""https://www.booking.com/xdata/images/hotel/square600/825337925.jpg?k=64769e32e5a7412a51e4bc316550f31f04812f633e803716c58baf4f04c773f5&o=""]",21 Avenue Carnot,Biarritz,fr,43.479203222687474,-1.5622150897979736,3.0,,,,,,True,False,False,319.8000000000001,159.90000000000006,EUR,True,2026-10-06T22:00:00Z,,2026-06-03 14:32:54.940525+00:00,2026-10-09,2026-10-11,Biarritz,2
180402,logis-val-flores,Hôtel VAL FLORES LOGIS,Hôtel,204,https://www.booking.com/hotel/fr/logis-val-flores.fr.html,"[""https://www.booking.com/xdata/images/hotel/square600/171899595.jpg?k=16191c78122e53157d9d930d73f8c1548c8c16b7353d8e2480dd41f0da9de46e&o=""]","48, avenue de La Marne",Biarritz,fr,43.48380307021778,-1.5483614802360535,2.0,,,,,,True,False,False,198.00000000000009,99.00000000000004,EUR,True,2026-10-05T22:00:00Z,1.1,2026-06-03 14:32:54.940527+00:00,2026-10-09,2026-10-11,Biarritz,2
539345,de-la-plage-biarritz,Hôtel de La Plage,Hôtel,204,https://www.booking.com/hotel/fr/de-la-plage-biarritz.fr.html,"[""https://www.booking.com/xdata/images/hotel/square600/400291502.jpg?k=ac84c002a06b99db1bb1db08d72fcd0c8496a09ee1b1b6c635012cc0dae98208&o=""]","3, esplanade du Port Vieux",Biarritz,fr,43.482133269718496,-1.567530557513237,4.0,,,,,,True,False,False,522.1600000000001,261.08000000000004,EUR,True,,0.6,2026-06-03 14:32:54.940528+00:00,2026-10-09,2026-10-11,Biarritz,2
209308,tonic-hotel-biarritz,Grand Tonic Hotel & SPA NUXE,Hôtel,204,https://www.booking.com/hotel/fr/tonic-hotel-biarritz.fr.html,"[""https://www.booking.com/xdata/images/hotel/square600/686581953.jpg?k=749a1aae9bef903cb05da1dbc9c509ee7141328033c3a3a365f55074953f48f0&o=""]",58 Avenue Edouard VII,Biarritz,fr,43.48447350743248,-1.5569445490837097,4.0,,,,,,True,False,False,397.9600000000001,198.98000000000005,EUR,True,,0.5,2026-06-03 14:32:54.940530+00:00,2026-10-09,2026-10-11,Biarritz,2
254704,palacito,Hôtel Cosmopolitain,Hôtel,204,https://www.booking.com/hotel/fr/palacito.fr.html,"[""https://www.booking.com/xdata/images/hotel/square600/208031369.jpg?k=1e4672452561f2c0fbb2bb91e53ea1ae4e20c612c7d4c3935cad7cc1ebc942a6&o=""]","1, Rue Gambetta",Biarritz,fr,43.48217900496228,-1.5618395805358887,3.0,,,,,,True,False,False,317.8000000000001,158.90000000000006,EUR,True,,,2026-06-03 14:32:54.940537+00:00,2026-10-09,2026-10-11,Biarritz,2
1059365,carlina-lodge-biarritz,Carlina Lodge,Apparthôtel,219,https://www.booking.com/hotel/fr/carlina-lodge-biarritz.fr.html,"[""https://www.booking.com/xdata/images/hotel/square600/761607919.jpg?k=dc2dfc5215759e77bd0c39424e59c4bc433e635e3195038bb8fe021d239a5342&o=""]",Boulevard Prince de Galles,Biarritz,fr,43.47747717485338,-1.5668547539672772,3.0,,,,,,True,False,False,363.0000000000001,181.50000000000006,EUR,True,2026-09-17T22:00:00Z,0.6,2026-06-03 14:32:54.940538+00:00,2026-10-09,2026-10-11,Biarritz,2
396215,eugenie-biarritz,Hôtel Florida,Hôtel,204,https://www.booking.com/hotel/fr/eugenie-biarritz.fr.html,"[""https://www.booking.com/xdata/images/hotel/square600/9184015.jpg?k=10da84488d256837f84d97db690f63534aea4d3e8bee48cee669ba45289bf832&o=""]",3-5 place Sainte Eugenie,Biarritz,fr,43.482229605617206,-1.5639907121658325,4.0,,,,,,True,False,False,314.9600000000001,157.48000000000005,EUR,True,2026-10-01T22:00:00Z,,2026-06-03 14:32:54.940540+00:00,2026-10-09,2026-10-11,Biarritz,2
57961,saint-james,Hôtel Saint James,Hôtel,204,https://www.booking.com/hotel/fr/saint-james.fr.html,"[""https://www.booking.com/xdata/images/hotel/square600/56295331.jpg?k=d484e100bf450632767ae65d2ce95d1ffc9070ec47a8f11a4c778f5de1344e49&o=""]",1 Rue des Halles,Biarritz,fr,43.481316841136795,-1.5628641843795776,2.0,,,,,,True,False,False,235.76000000000008,117.88000000000004,EUR,True,,,2026-06-03 14:32:54.940541+00:00,2026-10-09,2026-10-11,Biarritz,2
8335928,nemea-appart-les-hauts-de-milady,Nemea Appart Hotel Les Hauts de Milady Biarritz,Apparthôtel,219,https://www.booking.com/hotel/fr/nemea-appart-les-hauts-de-milady.fr.html,"[""https://www.booking.com/xdata/images/hotel/square600/717058367.jpg?k=e5045ce8812ea3a51668ab4d76e27f70c5926677ae86b208dbe2b5bf7d204cce&o=""]",24 Avenue de la Milady,Biarritz,fr,43.4702245,-1.5678466,4.0,,,,,,True,False,False,236.72000000000008,118.36000000000004,EUR,True,,1.3,2026-06-03 14:32:54.940541+00:00,2026-10-09,2026-10-11,Biarritz,2
444943,baron-de-biarritz,Hôtel Parc Mazon-Biarritz,Hôtel,204,https://www.booking.com/hotel/fr/baron-de-biarritz.fr.html,"[""https://www.booking.com/xdata/images/hotel/square600/573993451.jpg?k=5f44a878c576ba76711aa14b566e0d91971b36acb267d7724d1739f0e32713ee&o=""]",13 avenue Maréchal Joffre ,Biarritz,fr,43.477724035043224,-1.5622150897979736,2.0,,,,,,True,False,False,245.76000000000008,122.88000000000004,EUR,True,2026-10-06T22:00:00Z,,2026-06-03 14:32:54.940542+00:00,2026-10-09,2026-10-11,Biarritz,2
217354,amaryshotel,Sure Hotel by Best Western Biarritz Aeroport,Hôtel,204,https://www.booking.com/hotel/fr/amaryshotel.fr.html,"[""https://www.booking.com/xdata/images/hotel/square600/835476619.jpg?k=542fc4a751e121c95f319e9b59494a5d256bf51afb905e01b4dce385d532f02f&o=""]",24 boulevard marcel dassault,Biarritz,fr,43.47220790289405,-1.5348994731903076,3.0,,,,,,True,False,False,157.54000000000008,78.77000000000004,EUR,True,2026-09-24T22:00:00Z,2.3,2026-06-03 14:32:54.940544+00:00,2026-10-09,2026-10-11,Biarritz,2
59127,inter-windsor,Hôtel Le Windsor Biarritz,Hôtel,204,https://www.booking.com/hotel/fr/inter-windsor.fr.html,"[""https://www.booking.com/xdata/images/hotel/square600/312757428.jpg?k=ff590d91f977502d184d99291a8cf3526a40c395efa11bdccf92ad5bfdfa99fc&o=""]",11 Avenue Edouard VII,Biarritz,fr,43.484374255948275,-1.5586356818675995,4.0,,,,,,True,False,False,402.8000000000001,201.40000000000006,EUR,True,,,2026-06-03 14:32:54.940545+00:00,2026-10-09,2026-10-11,Biarritz,2
54253,le-cafe-de-paris-4,Hôtel Le Café de Paris,Hôtel,204,https://www.booking.com/hotel/fr/le-cafe-de-paris-4.fr.html,"[""https://www.booking.com/xdata/images/hotel/square600/328145042.jpg?k=d2b543b02e30b4a3014655889b6deb6777d26ef36c8fad5a351e9f79f2e3e010&o=""]",Place Bellevue,Biarritz,fr,43.482718094375606,-1.5613406896591187,4.0,,,,,,True,False,False,762.9600000000002,381.4800000000001,EUR,True,,,2026-06-03 14:32:54.940546+00:00,2026-10-09,2026-10-11,Biarritz,2
307816,le-saint-charles-biarritz,Saint Charles Hôtel & Coliving Biarritz,Hôtel,204,https://www.booking.com/hotel/fr/le-saint-charles-biarritz.fr.html,"[""https://www.booking.com/xdata/images/hotel/square600/766263476.jpg?k=1478db75b593dc70d28d9dd474b2d33e3b7bb239f927286e993f8cf18536d8fb&o=""]",47 avenue Reine Victoria,Biarritz,fr,43.48538135902915,-1.5492036938667297,3.0,,,,,,True,False,False,229.2700000000001,114.63500000000005,EUR,True,,1.1,2026-06-03 14:32:54.940547+00:00,2026-10-09,2026-10-11,Biarritz,2
55262,alcyon-biarritz,Ama Hôtel,Hôtel,204,https://www.booking.com/hotel/fr/alcyon-biarritz.fr.html,"[""https://www.booking.com/xdata/images/hotel/square600/441275409.jpg?k=066b0c8bbaa48180dcc7429cea76da7f00d9c96a569dfa60d7215ec2eaa93c8a&o=""]",8 rue Maison Suisse,Biarritz,fr,43.48131294872144,-1.5574930608272552,3.0,,,,,,True,False,False,331.6400000000001,165.82000000000005,EUR,True,,,2026-06-03 14:32:54.940548+00:00,2026-10-09,2026-10-11,Biarritz,2
53567,altess-hotel,Surf Club Hôtel by Akena - Grande plage,Hôtel,204,https://www.booking.com/hotel/fr/altess-hotel.fr.html,"[""https://www.booking.com/xdata/images/hotel/square600/613460821.jpg?k=297a584162f450440ddaa58e7bf934f3c79fc67f05a7ae4f36e50aad63611ef9&o=""]",19 Avenue De La Reine Victoria,Biarritz,fr,43.48534146444387,-1.5523874759674072,3.0,,,,,,True,False,False,358.8000000000001,179.40000000000006,EUR,True,2026-10-07T22:00:00Z,0.9,2026-06-03 14:32:54.940551+00:00,2026-10-09,2026-10-11,Biarritz,2
7055520,victoria-surf-biarritz-102,Victoria Surf Biarritz 102,Appartement,201,https://www.booking.com/hotel/fr/victoria-surf-biarritz-102.fr.html,"[""https://www.booking.com/xdata/images/hotel/square600/284839714.jpg?k=580000eb9cc45dd224882e01a95cdb3166c7e622e012dab58cf98eb86922b765&o=""]",21 Avenue Edouard VII,Biarritz,fr,43.4845717,-1.5575611999999999,3.0,,,,,,False,False,False,204.00000000000009,102.00000000000004,EUR,True,2026-09-24T22:00:00Z,0.5,2026-06-03 14:32:54.940553+00:00,2026-10-09,2026-10-11,Biarritz,2
499443,le-caritz,Roc Seven Biarritz,Hôtel,204,https://www.booking.com/hotel/fr/le-caritz.fr.html,"[""https://www.booking.com/xdata/images/hotel/square600/700536027.jpg?k=a59da21445d4117c10b2191d4827956933e29b0e8cd375d91aabafaf5b08dc79&o=""]",14 rue du Port Vieux,Biarritz,fr,43.482308425783714,-1.566811054944992,4.0,,,,,,True,False,False,536.9601000000001,268.48005000000006,EUR,True,,0.5,2026-06-03 14:32:54.940554+00:00,2026-10-09,2026-10-11,Biarritz,2
7390456,le-garage-regina,Le Garage Biarritz Hôtel,Hôtel,204,https://www.booking.com/hotel/fr/le-garage-regina.fr.html,"[""https://www.booking.com/xdata/images/hotel/square600/316932584.jpg?k=ac10a17e74e11e490bace93d186c7b5b243f3395673bc8d035d0523a9e6138d0&o=""]",50 Avenue de l'Impératrice,Biarritz,fr,43.490592,-1.5516969999999999,4.0,,,,,,True,False,False,613.4600000000002,306.7300000000001,EUR,True,,1.3,2026-06-03 14:32:54.940555+00:00,2026-10-09,2026-10-11,Biarritz,2
308172,de-silhouette-biarritz,Hotel de Silhouette,Hôtel,204,https://www.booking.com/hotel/fr/de-silhouette-biarritz.fr.html,"[""https://www.booking.com/xdata/images/hotel/square600/468992735.jpg?k=8059b94ee8ed416a8c1424fad3bb217e4a3c4273645faa8de2fb2edd69aa10b3&o=""]",30 rue Gambetta,Biarritz,fr,43.48106772604739,-1.5632075071334839,4.0,,,,,,True,False,False,636.9601000000001,318.48005000000006,EUR,True,2026-10-03T22:00:00Z,,2026-06-03 14:32:54.940557+00:00,2026-10-09,2026-10-11,Biarritz,2
180270,best-western-kemaris,Hôtel Kemaris,Hôtel,204,https://www.booking.com/hotel/fr/best-western-kemaris.fr.html,"[""https://www.booking.com/xdata/images/hotel/square600/579594538.jpg?k=63dfdee3d8698a50e13df54d8a2031786254ff5fbf699ac8f429702970ece7af&o=""]",35 Avenue du Maréchal Joffre,Biarritz,fr,43.47650270479494,-1.562456488609314,3.0,,,,,,True,False,False,407.8000000000001,203.90000000000006,EUR,True,,,2026-06-03 14:32:54.940558+00:00,2026-10-09,2026-10-11,Biarritz,2
7003458,coral-keyweek-apartment-in-city-center-closed-to-the-beach-private-garage,CORAL KEYWEEK Apt in city center closed to the beach private garage,Appartement,201,https://www.booking.com/hotel/fr/coral-keyweek-apartment-in-city-center-closed-to-the-beach-private-garage.fr.html,"[""https://www.booking.com/xdata/images/hotel/square600/284185816.jpg?k=c2dccee0c73394563a989b5f88f593118d4ea531d71e5c16e9e21440f5b8c014&o=""]",3 avenue Reine Victoria,Biarritz,fr,43.4855662,-1.5552619,4.0,,,,,,False,False,False,1631.86,815.93,EUR,True,,0.7,2026-06-03 14:32:54.940559+00:00,2026-10-09,2026-10-11,Biarritz,2
50984,hotelanjou,Alfred Hotels Les Halles,Hôtel,204,https://www.booking.com/hotel/fr/hotelanjou.fr.html,"[""https://www.booking.com/xdata/images/hotel/square600/695379938.jpg?k=41baa9a099e0a12b85bc3fe785f25b2cb5cf680a860644f9af936f2d79a795d0&o=""]","18, Rue Gambetta",Biarritz,fr,43.481694404236,-1.5630841255188,3.0,9.1,1280.0,Fabuleux ,,9.8,True,False,False,387.98,193.99,EUR,True,,,2026-06-03 14:32:54.940560+00:00,2026-10-09,2026-10-11,Biarritz,2
236640,7b,Hotel Villa Koegui Biarritz,Hôtel,204,https://www.booking.com/hotel/fr/7b.fr.html,"[""https://www.booking.com/xdata/images/hotel/square600/263644448.jpg?k=d2f7a7386917e4f4b50af99eb5c191a978ba3b0cdd63366491f04d178b889132&o=""]","7, rue de Gascogne",Biarritz,fr,43.4807086481932,-1.55810058116913,4.0,8.8,717.0,Superbe,,9.6,True,False,False,415.9601,207.98005,EUR,True,,,2026-06-03 14:32:54.940562+00:00,2026-10-09,2026-10-11,Biarritz,2
53547,saint-julien,Hotel Saint Julien,Hôtel,204,https://www.booking.com/hotel/fr/saint-julien.fr.html,"[""https://www.booking.com/xdata/images/hotel/square600/858811119.jpg?k=416deacddc0698ba81fee6a922e89c2724de583c6f1eaf40469e3521e64989a7&o=""]",20 Avenue Carnot,Biarritz,fr,43.479138995555,-1.56227543950081,3.0,9.2,605.0,Fabuleux ,,9.6,True,False,False,423.8,211.9,EUR,True,,,2026-06-03 14:32:54.940563+00:00,2026-10-09,2026-10-11,Biarritz,2
53294,campanile-biarritz,Campanile Biarritz,Hôtel,204,https://www.booking.com/hotel/fr/campanile-biarritz.fr.html,"[""https://www.booking.com/xdata/images/hotel/square600/818876303.jpg?k=97054da5c5a579c7c6d0487c6861724b542dcbbdc6ff265dc9fc23ab859d12ba&o=""]",43 rue Chapelet - Boulevard Marcel Dassault RN 10 Rond Point du mousse,Biarritz,fr,43.4663875845881,-1.54004395008087,3.0,7.1,2902.0,Bien ,,,False,False,False,157.7001,78.85005,EUR,True,2026-09-23T22:00:00Z,2.3,2026-06-03 14:32:54.940564+00:00,2026-10-09,2026-10-11,Biarritz,2
6399756,les-tourelles-biarritz,Les Tourelles,Maison,216,https://www.booking.com/hotel/fr/les-tourelles-biarritz.fr.html,"[""https://www.booking.com/xdata/images/hotel/square600/253259700.jpg?k=d10fb8d9a3ad981a8d8029c99e38bb6adb76e05425bc65c1234a56fffa9fbd09&o=""]",37 Avenue de Verdun,Biarritz,fr,43.481942,-1.555088,4.0,8.8,107.0,Superbe,,9.8,True,False,False,282.58,141.29,EUR,True,,,2026-06-03 14:32:54.940565+00:00,2026-10-09,2026-10-11,Biarritz,2
222547,mgallery-hotel-biarritz,Le Talaia Hôtel & Spa Biarritz - MGallery Collection,Hôtel,204,https://www.booking.com/hotel/fr/mgallery-hotel-biarritz.fr.html,"[""https://www.booking.com/xdata/images/hotel/square600/873092880.jpg?k=cfbddd4ddd8dc6ca0f0d7a336dc0252b4610898aa9e1f3993afd178dc53796b7&o=""]",1 Carrefour Helianthe,Biarritz,fr,43.4782719225838,-1.56469076871872,4.0,9.0,387.0,Fabuleux ,,9.6,True,False,False,905.96,452.98,EUR,True,,,2026-06-03 14:32:54.940566+00:00,2026-10-09,2026-10-11,Biarritz,2
775722,chambre-d-ha-tes-arima,Chambre d'Hôtes Arima,Maison,216,https://www.booking.com/hotel/fr/chambre-d-ha-tes-arima.fr.html,"[""https://www.booking.com/xdata/images/hotel/square600/837082208.jpg?k=4cb480fdc6fbdff0283ecf4b8237a20ab994d88b5ee3ea8c9b8c045b5b7b0b40&o=""]","13 Bis, avenue du Parc Bon Air",Biarritz,fr,43.4829534383894,-1.55128240585327,3.0,9.2,133.0,Fabuleux ,,9.7,False,False,False,324.6,162.3,EUR,True,2026-09-08T22:00:00Z,0.8,2026-06-03 14:32:54.940567+00:00,2026-10-09,2026-10-11,Biarritz,2
209294,karitza-biarritz,Hôtel Jules Verne Biarritz,Hôtel,204,https://www.booking.com/hotel/fr/karitza-biarritz.fr.html,"[""https://www.booking.com/xdata/images/hotel/square600/311705628.jpg?k=aa29f05b02bc09524e612e26a0bd35c5f689f21b76c92a397a722474139ebc0a&o=""]","2, rue Guy Petit",Biarritz,fr,43.4785395390259,-1.55539959669113,4.0,8.4,2086.0,Très bien,,,True,False,False,482.9601,241.48005,EUR,True,,,2026-06-03 14:32:54.940569+00:00,2026-10-09,2026-10-11,Biarritz,2
51487,hoteldupalaisbiarritz,"Hôtel du Palais Biarritz, in The Unbound Collection by Hyatt",Hôtel,204,https://www.booking.com/hotel/fr/hoteldupalaisbiarritz.fr.html,"[""https://www.booking.com/xdata/images/hotel/square600/838538312.jpg?k=62f808e4cdfd083daa3051b7d96404c43e868a639ec5d93e56bdb5fa2e9e3718&o=""]","1, Avenue de l'Impératrice",Biarritz,fr,43.4864390424493,-1.55621767044067,5.0,9.6,791.0,Exceptionnel,,9.9,False,False,False,1906.7201,953.36005,EUR,True,2026-10-07T22:00:00Z,0.8,2026-06-03 14:32:54.940570+00:00,2026-10-09,2026-10-11,Biarritz,2
54859,les-alizes,Hôtel Les Alizés,Hôtel,204,https://www.booking.com/hotel/fr/les-alizes.fr.html,"[""https://www.booking.com/xdata/images/hotel/square600/668037.jpg?k=bde46dbbb0a0aed56ce7df1d417db0a9af68c2ed7b292d2c062e7c54ef64feee&o=""]",13 rue du Port Vieux,Biarritz,fr,43.4821449468053,-1.5662893652916,2.0,7.5,1259.0,Bien ,,9.3,False,False,False,228.06,114.03,EUR,True,,,2026-06-03 14:32:54.940571+00:00,2026-10-09,2026-10-11,Biarritz,2
347187,palym-biarritz,Hôtel PALMITO,Hôtel,204,https://www.booking.com/hotel/fr/palym-biarritz.fr.html,"[""https://www.booking.com/xdata/images/hotel/square600/415604995.jpg?k=946d2818d1fbbfca0f16eb9eeb1e8b2ab87489c1b8efbf4f9b06b6c0e1cf6326&o=""]",7 rue du Port Vieux ,Biarritz,fr,43.4820505569556,-1.56574487686157,3.0,8.5,1400.0,Très bien,,9.6,True,True,False,248.48,124.24,EUR,True,,,2026-06-03 14:32:54.940572+00:00,2026-10-09,2026-10-11,Biarritz,2
209298,citotelmarbella,Hotel Marbella,Hôtel,204,https://www.booking.com/hotel/fr/citotelmarbella.fr.html,"[""https://www.booking.com/xdata/images/hotel/square600/444039381.jpg?k=d0a96ceeedf53cfbced057f80686fcece8e841b8ae366db58ffb51166cd98f48&o=""]",11 Rue Du Port Vieux,Biarritz,fr,43.4820486107716,-1.56584948301315,3.0,8.0,1373.0,Très bien,,9.5,False,False,False,277.7001,138.85005,EUR,True,,,2026-06-03 14:32:54.940573+00:00,2026-10-09,2026-10-11,Biarritz,2
5105047,la-maison-du-marquis-biarritz,Maison Cuevas,Maison,216,https://www.booking.com/hotel/fr/la-maison-du-marquis-biarritz.fr.html,"[""https://www.booking.com/xdata/images/hotel/square600/685830952.jpg?k=21ee36e3bf94b2acd115806bcf1b6a1a7c4a12c9f3bb0f736faa90bfcd425c10&o=""]",41 Rue de l'Estagnas,Biarritz,fr,43.48439,-1.54113,4.0,9.6,107.0,Exceptionnel,,,True,True,False,404.6,202.3,EUR,True,2026-09-08T22:00:00Z,1.6,2026-06-03 14:32:54.940574+00:00,2026-10-09,2026-10-11,Biarritz,2
16048043,arley-large-beach-city-center-swimming-pool,"Arley- Large beach, city center, swimming pool-",Appartement,201,https://www.booking.com/hotel/fr/arley-large-beach-city-center-swimming-pool.fr.html,"[""https://www.booking.com/xdata/images/hotel/square600/841698286.jpg?k=9799b6ca6edd33ba190471db653eb4b706e0dad667a99d02ad21c8705359a328&o=""]",111 21 Avenue Edouard VII,Biarritz,fr,43.4846667,-1.5573778,,0.0,0.0,,,,False,False,False,206.976,103.488,EUR,True,,0.5,2026-06-03 14:32:54.940575+00:00,2026-10-09,2026-10-11,Biarritz,2
57483,de-l-ocean,Hotel de l'Océan et restaurant - Coeur de ville,Hôtel,204,https://www.booking.com/hotel/fr/de-l-ocean.fr.html,"[""https://www.booking.com/xdata/images/hotel/square600/783913715.jpg?k=8efa400a25c28342dd4faa2c3f7a2f5c944e650d3079a705f207623db78d5bff&o=""]",9 Place Sainte-Eugénie,Biarritz,fr,43.4825740781801,-1.56374394893646,3.0,8.0,551.0,Très bien,,9.6,True,False,False,466.8001,233.40005,EUR,True,,,2026-06-03 14:32:54.940576+00:00,2026-10-09,2026-10-11,Biarritz,2
57114,biarritz-centre-plaza,Hotel Plaza Biarritz Plage - Handwritten Collection,Hôtel,204,https://www.booking.com/hotel/fr/biarritz-centre-plaza.fr.html,"[""https://www.booking.com/xdata/images/hotel/square600/876248905.jpg?k=3730db1f8a7fbc67d3dc7bdb2b4cf6e8bdb902dc3cac99580ba5de35edbd3dac&o=""]",10 Avenue Edouard VII,Biarritz,fr,43.4828893564315,-1.55857264995575,4.0,8.7,976.0,Superbe,,9.7,False,False,False,456.96,228.48,EUR,True,,,2026-06-03 14:32:54.940577+00:00,2026-10-09,2026-10-11,Biarritz,2
9396048,superb-top-floor-studio-biarritz-center,"Superb top floor studio, Biarritz center.",Appartement,201,https://www.booking.com/hotel/fr/superb-top-floor-studio-biarritz-center.fr.html,"[""https://www.booking.com/xdata/images/hotel/square600/414827280.jpg?k=e9fe3432ae63be4809d7027959af25113207f7137b9d24f74675eab845d4554e&o=""]",54 Avenue Edouard VII,Biarritz,fr,43.484249146647,-1.557227387836,3.0,8.6,24.0,Superbe,,9.8,True,False,False,459.976,229.988,EUR,True,,0.5,2026-06-03 14:32:54.940578+00:00,2026-10-09,2026-10-11,Biarritz,2
53617,residence-pierre-vacances-haguna,Résidence Pierre & Vacances Premium Haguna,Apparthôtel,219,https://www.booking.com/hotel/fr/residence-pierre-vacances-haguna.fr.html,"[""https://www.booking.com/xdata/images/hotel/square600/757482792.jpg?k=ce3fc68f3ae445f8802583b5721371650b2ae2e16eeb86e0b1d68805eb943102&o=""]","17, Avenue De La Reine Victoria",Biarritz,fr,43.4853453565997,-1.55258059501648,4.0,8.6,904.0,Superbe,,9.4,False,False,False,304.96,152.48,EUR,True,,0.9,2026-06-03 14:32:54.940579+00:00,2026-10-09,2026-10-11,Biarritz,2
54575,premiere-classe-biarritz,Premiere Classe Biarritz,Hôtel,204,https://www.booking.com/hotel/fr/premiere-classe-biarritz.fr.html,"[""https://www.booking.com/xdata/images/hotel/square600/825622819.jpg?k=e224b44a550207e1d54228c041469c308d95bb1f3eb031c9463b24a701d960ed&o=""]",41 rue Chapelet - Bvd Dassault - Rond-point du Mousse,Biarritz,fr,43.4663291839057,-1.54057502746582,,5.4,3308.0,Note,,,False,False,False,129.7409,64.87045,EUR,True,2026-09-23T22:00:00Z,2.3,2026-06-03 14:32:54.940580+00:00,2026-10-09,2026-10-11,Biarritz,2
209301,hotellebiarritz,ibis Styles Biarritz Plage,Hôtel,204,https://www.booking.com/hotel/fr/hotellebiarritz.fr.html,"[""https://www.booking.com/xdata/images/hotel/square600/878625524.jpg?k=9793801ede94a1cc02c0701b3ddfe5cf2ecf89ceacdb7f63b6ecbcd34ee9b153&o=""]",30 Avenue de La Milady,Biarritz,fr,43.4688987605589,-1.56856119632721,3.0,8.5,1399.0,Très bien,,,False,False,False,362.7401,181.37005,EUR,True,,1.4,2026-06-03 14:32:54.940581+00:00,2026-10-09,2026-10-11,Biarritz,2
183969,mercure-le-president-biarritz-centre,Mercure Président Biarritz Plage,Hôtel,204,https://www.booking.com/hotel/fr/mercure-le-president-biarritz-centre.fr.html,"[""https://www.booking.com/xdata/images/hotel/square600/763634563.jpg?k=5ca9322edd762c667fcef129a4635a762f54eb8ce37ddedf1d1af1acb3c0f960&o=""]",18 Place Georges Clémenceau,Biarritz,fr,43.4818646960989,-1.55975818634033,4.0,8.4,984.0,Très bien,,9.5,False,False,False,422.96,211.48,EUR,True,,,2026-06-03 14:32:54.940582+00:00,2026-10-09,2026-10-11,Biarritz,2
11797335,la-suite-biarritz,Hôtel La Suite,Hôtel,204,https://www.booking.com/hotel/fr/la-suite-biarritz.fr.html,"[""https://www.booking.com/xdata/images/hotel/square600/587455115.jpg?k=9607f0b183b237bca3e594267b5403e440b574982f6e0f351ac1aaafe497ce59&o=""]",5 Avenue Edouard VII,Biarritz,fr,43.4836409,-1.558741,4.0,8.3,311.0,Très bien,,9.3,False,False,False,498.96,249.48,EUR,True,2026-10-06T22:00:00Z,,2026-06-03 14:32:54.940583+00:00,2026-10-09,2026-10-11,Biarritz,2
10415482,maison-maite-au-coeur-de-biarritz,"Maison MAÏTÉ, au cœur de Biarritz",Maison,216,https://www.booking.com/hotel/fr/maison-maite-au-coeur-de-biarritz.fr.html,"[""https://www.booking.com/xdata/images/hotel/square600/481879080.jpg?k=89c2ca27816a71cea2091c9180e87813429946b2740d418666b64953e60b4c9b&o=""]",5 Rue d'Alger,Biarritz,fr,43.480273111845,-1.559517114314,4.0,9.5,136.0,Exceptionnel,,9.9,False,False,False,419.936,209.968,EUR,True,2026-09-08T22:00:00Z,,2026-06-03 14:32:54.940584+00:00,2026-10-09,2026-10-11,Biarritz,2
5342894,sandy-close-to-the-center-the-beach-in-biarritz,SANDY - appartement avec 2 chambres,Appartement,201,https://www.booking.com/hotel/fr/sandy-close-to-the-center-the-beach-in-biarritz.fr.html,"[""https://www.booking.com/xdata/images/hotel/square600/257958548.jpg?k=2eec1a195c1c9a187e86d71dcd838d68fd6055591b88bc13325ac8cc3e5b9845&o=""]",7 Rue Ernest Renan 1er étage droite,Biarritz,fr,43.4763498,-1.5515676,3.0,7.3,31.0,Bien ,,,True,False,False,477.0253,238.51265,EUR,True,2026-09-24T22:00:00Z,0.9,2026-06-03 14:32:54.940585+00:00,2026-10-09,2026-10-11,Biarritz,2
9391185,lovely-studio-with-wonderful-view-on-the-sea-welkeys,Studio Roche Ronde - Welkeys,Appartement,201,https://www.booking.com/hotel/fr/lovely-studio-with-wonderful-view-on-the-sea-welkeys.fr.html,"[""https://www.booking.com/xdata/images/hotel/square600/421099076.jpg?k=affebc86016e4815cfacc4a02cb89f894f3326f1f410640153246d755e0c242c&o=""]",1 rue du Prince Impérial,Biarritz,fr,43.487999,-1.5541164,3.0,8.3,20.0,Très bien,,,True,False,False,480.5239,240.26195,EUR,True,,1.0,2026-06-03 14:32:54.940586+00:00,2026-10-09,2026-10-11,Biarritz,2
13198737,gure-zoriona-petit-bonheur-en-basque,"Gure Zoriona, Petit Bonheur en basque",Appartement,201,https://www.booking.com/hotel/fr/gure-zoriona-petit-bonheur-en-basque.fr.html,"[""https://www.booking.com/xdata/images/hotel/square600/667698216.jpg?k=430f3e9f3538af02e62715ee4bf133c8c86c05e40cac91f8c4e1bdcb19669150&o=""]",20 Rue Marcel Doret,Biarritz,fr,43.4861848836619,-1.54057488650817,3.0,8.2,43.0,Très bien,,,False,False,False,268.0909,134.04545,EUR,True,2026-09-24T22:00:00Z,1.7,2026-06-03 14:32:54.940588+00:00,2026-10-09,2026-10-11,Biarritz,2
10257482,agur-maitea,AGUR MAITEA,Appartement,201,https://www.booking.com/hotel/fr/agur-maitea.fr.html,"[""https://www.booking.com/xdata/images/hotel/square600/468949980.jpg?k=31835c3038888fd1bd8898964f5779e1cb27d6329e87b7651f985ca8520aa783&o=""]",Impasse des Mimosas,Biarritz,fr,43.486730742851,-1.550958868752,3.0,8.8,78.0,Superbe,,9.8,False,False,False,164.068,82.034,EUR,True,,1.1,2026-06-03 14:32:54.940589+00:00,2026-10-09,2026-10-11,Biarritz,2
7123064,pop-keyweek-apt-3-bedrooms-with-terrace-parking-biarritz-city-center,POP KEYWEEK Apt 3 bedrooms with terrace & parking Biarritz city center,Appartement,201,https://www.booking.com/hotel/fr/pop-keyweek-apt-3-bedrooms-with-terrace-parking-biarritz-city-center.fr.html,"[""https://www.booking.com/xdata/images/hotel/square600/288099542.jpg?k=dfd8a6a35e5d94570a4e7e0201fbbf03d0d3835d1f850b41615c22415c11bd6c&o=""]",13 rue Jean Bart,Biarritz,fr,43.4808537,-1.5569744,4.0,9.0,5.0,Fabuleux ,,9.5,True,False,False,1479.25,739.625,EUR,True,,,2026-06-03 14:32:54.940590+00:00,2026-10-09,2026-10-11,Biarritz,2
209320,aubergelerelais,Urban Style Biarritz Le Relais,Hôtel,204,https://www.booking.com/hotel/fr/aubergelerelais.fr.html,"[""https://www.booking.com/xdata/images/hotel/square600/464567716.jpg?k=c8c009fd8686002a07a4cdb672fdbc0e20bd44054163149f95a8a056bbbb6a13&o=""]",44 Avenue de la Marne,Biarritz,fr,43.4840570393269,-1.54899716377258,3.0,8.3,235.0,Très bien,,,False,False,False,283.8,141.9,EUR,True,,1.0,2026-06-03 14:32:54.940592+00:00,2026-10-09,2026-10-11,Biarritz,2
5449926,seafront-apartment-with-large-terrace-and-parking-in-biarritz,BLUE MOON KEYWEEK Seafront Apt with large Terrace and Parking Biarritz,Appartement,201,https://www.booking.com/hotel/fr/seafront-apartment-with-large-terrace-and-parking-in-biarritz.fr.html,"[""https://www.booking.com/xdata/images/hotel/square600/523539586.jpg?k=92edc418cbaef6e47b536f5bb3c52347136a4a53543e08dbed8ce415d71b3297&o=""]",Rue Monhau,Biarritz,fr,43.482548,-1.560272,4.0,0.0,0.0,,,,True,False,False,1520.78,760.39,EUR,True,,,2026-06-03 14:32:54.940593+00:00,2026-10-09,2026-10-11,Biarritz,2
6194630,imperial-biarritz,IMPERIAL Apartment in the center of Biarritz close to the beach,Appartement,201,https://www.booking.com/hotel/fr/imperial-biarritz.fr.html,"[""https://www.booking.com/xdata/images/hotel/square600/242405914.jpg?k=88c84f10eee3bacffe214b0f0ce1865890b7efcc22503025b2cbeb323a29022b&o=""]",3 Avenue Reine Victoria 5ème étage,Biarritz,fr,43.4831519,-1.558626,4.0,8.7,14.0,Superbe,,9.5,True,False,False,1334.7,667.35,EUR,True,,,2026-06-03 14:32:54.940594+00:00,2026-10-09,2026-10-11,Biarritz,2
7415477,coast-keyweek-duplex-apartment-in-the-city-center-with-sea-view,COAST KEYWEEK Duplex apartment in the city center with sea view,Appartement,201,https://www.booking.com/hotel/fr/coast-keyweek-duplex-apartment-in-the-city-center-with-sea-view.fr.html,"[""https://www.booking.com/xdata/images/hotel/square600/303583926.jpg?k=ba9db328d064d66ff44c31d79c7be3d46419e2d8414a67a434a1d06f544ec5fc&o=""]",3 avenue Louis Barthou,Biarritz,fr,43.4823128,-1.5583363,4.0,9.0,3.0,Fabuleux ,,,True,False,False,1671.56,835.78,EUR,True,,,2026-06-03 14:32:54.940595+00:00,2026-10-09,2026-10-11,Biarritz,2
6218798,youcca-izokina-2-bedroom-apartment-in-biarritz,IZOKINA KEYWEEK 2 bedroom Apartment in Biarritz,Appartement,201,https://www.booking.com/hotel/fr/youcca-izokina-2-bedroom-apartment-in-biarritz.fr.html,"[""https://www.booking.com/xdata/images/hotel/square600/243314426.jpg?k=b8c1b2563c5c537bb87fc5b8e461bfd9af527275f4ee4b3bc51dbc68b8a5ee2f&o=""]","Reine Nathalie, 2",Biarritz,fr,43.484882,-1.549489,4.0,9.0,3.0,Fabuleux ,,10.0,True,False,False,1339.2,669.6,EUR,True,,1.0,2026-06-03 14:32:54.940596+00:00,2026-10-09,2026-10-11,Biarritz,2
6523937,london-avenue-keyweek-apartment-biarritz-center-with-balcony-and-parking,LONDON AVENUE KEYWEEK apartment Biarritz center with balcony and parking,Appartement,201,https://www.booking.com/hotel/fr/london-avenue-keyweek-apartment-biarritz-center-with-balcony-and-parking.fr.html,"[""https://www.booking.com/xdata/images/hotel/square600/258349290.jpg?k=27e62418408fde7f13962e91ae01038df00169a93a8d2d79dd84a89abc2ffaff&o=""]",avenue de londres,biarritz,fr,43.4784928359119,-1.56276981463012,4.0,6.5,2.0,Note,,,True,False,False,1419.97,709.985,EUR,True,,,2026-06-03 14:32:54.940597+00:00,2026-10-09,2026-10-11,Biarritz,2
5449770,vintage-duplex-apartment-with-parking-in-biarritz-center,L'ATELIER KEYWEEK Vintage Duplex Apartment with Parking Biarritz Center,Appartement,201,https://www.booking.com/hotel/fr/vintage-duplex-apartment-with-parking-in-biarritz-center.fr.html,"[""https://www.booking.com/xdata/images/hotel/square600/223891181.jpg?k=5934b5910704893a0ccb036406ef0954fd58a251ee24ee6a01a91426f09a4e95&o=""]",19 Rue Duler,Biarritz,fr,43.479885,-1.562508,4.0,4.5,2.0,Note,,,True,False,False,1577.28,788.64,EUR,True,,,2026-06-03 14:32:54.940598+00:00,2026-10-09,2026-10-11,Biarritz,2
3815272,loft-appartement-5-chambres,LOFT KEYWEEK Superbe Loft Contemporain proche de la plage à Biarritz,Appartement,201,https://www.booking.com/hotel/fr/loft-appartement-5-chambres.fr.html,"[""https://www.booking.com/xdata/images/hotel/square600/268437686.jpg?k=01d3d6395cf616c4c96818fe0fff7f5aeb4dbe0481826a606c8cab6c1621eaac&o=""]",15 Place Georges Clemenceau,Biarritz,fr,43.482727,-1.560406,4.0,8.0,1.0,Très bien,,10.0,True,False,False,2813.14,1406.57,EUR,True,,,2026-06-03 14:32:54.940599+00:00,2026-10-09,2026-10-11,Biarritz,2
11140070,biarritz-residence-victoria-surf-vue-ocean,Biarritz - Residence Victoria surf - Face océan,Appartement,201,https://www.booking.com/hotel/fr/biarritz-residence-victoria-surf-vue-ocean.fr.html,"[""https://www.booking.com/xdata/images/hotel/square600/509301674.jpg?k=0eaac0db40e2038eee7d2eec63668e719ba2733a4f2b5d97ddb8a8325d0c5981&o=""]","Edouard VII, 21",Biarritz,fr,43.4845317,-1.5575036,3.0,7.7,12.0,Bien ,,9.5,False,False,False,322.256,161.128,EUR,True,,0.5,2026-06-03 14:32:54.940600+00:00,2026-10-09,2026-10-11,Biarritz,2
14678947,bel-appartement-vue-mer-climatise-a-biarritz,Bel appartement Vue Mer Climatisé à Biarritz,Appartement,201,https://www.booking.com/hotel/fr/bel-appartement-vue-mer-climatise-a-biarritz.fr.html,"[""https://www.booking.com/xdata/images/hotel/square600/856482885.jpg?k=526e1860561aa393cf9cbf8ff19325f877775f57d705cb48f95957e435bcf408&o=""]",Avenue de l'Impératrice,Biarritz,fr,43.489156,-1.5528264,3.0,0.0,0.0,,,,False,False,False,362.5007,181.25035,EUR,True,,1.2,2026-06-03 14:32:54.940602+00:00,2026-10-09,2026-10-11,Biarritz,2
16317526,argia-large-beach-city-center-swimming-pool,"Argia - Large beach, city center, swimming pool-",Appartement,201,https://www.booking.com/hotel/fr/argia-large-beach-city-center-swimming-pool.fr.html,"[""https://www.booking.com/xdata/images/hotel/square600/862116700.jpg?k=f5c298970c933e3dc8728f3707a582142b6bee5e10da39dc0460c0e801043d07&o=""]",21 Avenue Edouard VII,Biarritz,fr,43.4846667,-1.5573778,,0.0,0.0,,,,False,False,False,260.1382,130.0691,EUR,True,,0.5,2026-06-03 14:32:54.940603+00:00,2026-10-09,2026-10-11,Biarritz,2
15938098,cosy-et-lumineux-t2-cote-des-basques-et-parking,Cosy et lumineux T2 côte des basques et Parking,Appartement,201,https://www.booking.com/hotel/fr/cosy-et-lumineux-t2-cote-des-basques-et-parking.fr.html,"[""https://www.booking.com/xdata/images/hotel/square600/832397101.jpg?k=452a2b21347cdb9840b85b9099c7e459794f249c88226bc6bf93921042a7ef74&o=""]",Villa Kalou 9 bis Rue de Pétricot,Biarritz,fr,43.4731384,-1.5596459,3.0,9.7,3.0,Exceptionnel,,10.0,False,False,False,253.0909,126.54545,EUR,True,2026-10-01T22:00:00Z,0.8,2026-06-03 14:32:54.940604+00:00,2026-10-09,2026-10-11,Biarritz,2
14653087,studio-moderne-avec-piscine-vue-panoramique-biarritz-fr-1-239-1143,"Studio moderne avec piscine, vue panoramique Biarritz - FR-1-239-1143",Appartement,201,https://www.booking.com/hotel/fr/studio-moderne-avec-piscine-vue-panoramique-biarritz-fr-1-239-1143.fr.html,"[""https://www.booking.com/xdata/images/hotel/square600/724104280.jpg?k=431c3ebdc5bf908cac337546e113e2380b71164a7842a1d530b35e01e7599e6f&o=""]",21 Avenue Édouard 7,Biarritz,fr,43.484667,-1.557378,2.0,0.0,0.0,,,,False,False,False,399.7917,199.89585,EUR,True,2026-09-24T22:00:00Z,0.5,2026-06-03 14:32:54.940607+00:00,2026-10-09,2026-10-11,Biarritz,2
10667084,haritzaga,HARITZAGA chambre d'hôte terrasse & jardin privé,Chambre d'hôtes,208,https://www.booking.com/hotel/fr/haritzaga.fr.html,"[""https://www.booking.com/xdata/images/hotel/square600/792360807.jpg?k=a6803180f871c13a30f333443567fa06a685e66ed7a9bf706f0fed30d761e20e&o=""]",3 Rue de Mérin,Biarritz,fr,43.454337254775,-1.548358072077,4.0,9.9,23.0,Exceptionnel,,,False,False,False,385.92,192.96,EUR,True,,3.1,2026-06-03 14:32:54.940608+00:00,2026-10-09,2026-10-11,Biarritz,2
16090642,hondartza-front-de-mer-centre-ville-piscine,"Hondartza - Front de mer, centre ville, piscine -",Appartement,201,https://www.booking.com/hotel/fr/hondartza-front-de-mer-centre-ville-piscine.fr.html,"[""https://www.booking.com/xdata/images/hotel/square600/845045973.jpg?k=92ece5385b9b3602199cabc07fca2e67f0e98fafcd0027e9a42e50283bd4fb98&o=""]",7eme étage 21 Av. Edouard VII,Biarritz,fr,43.4848575541081,-1.55711685714721,,10.0,1.0,Exceptionnel,,10.0,False,False,False,308.4946,154.2473,EUR,True,2026-09-24T22:00:00Z,0.6,2026-06-03 14:32:54.940609+00:00,2026-10-09,2026-10-11,Biarritz,2
14370966,t2-apartment-beaurivage-milady-neighborhood,Appartement Biarritz plage Milady surf,Appartement,201,https://www.booking.com/hotel/fr/t2-apartment-beaurivage-milady-neighborhood.fr.html,"[""https://www.booking.com/xdata/images/hotel/square600/697291312.jpg?k=694fe96b98b5b2caf38ae24ce8874cd74580fd506f1a597b29a772f8296b5274&o=""]",18 Rue des Padouens,Biarritz,fr,43.4677076,-1.5679695,3.0,8.8,5.0,Superbe,,10.0,False,False,False,239.7274,119.8637,EUR,True,,1.5,2026-06-03 14:32:54.940610+00:00,2026-10-09,2026-10-11,Biarritz,2
13818867,studio-3-personnes-avec-terrasse-50-m-de-la-grande-plage-biarritz-surf,Studio 3 personnes avec terrasse 50 m de la Grande Plage Biarritz Surf,Appartement,201,https://www.booking.com/hotel/fr/studio-3-personnes-avec-terrasse-50-m-de-la-grande-plage-biarritz-surf.fr.html,"[""https://www.booking.com/xdata/images/hotel/square600/662500600.jpg?k=360e5650cdbeef86e448e73eeb313f7d4fde2a5d26fa7b21ef16719cabefacf4&o=""]",3 Rue Lavernis,Biarritz,fr,43.4825907,-1.5597136,3.0,8.0,6.0,Très bien,,10.0,False,False,False,474.2182,237.1091,EUR,True,2026-09-24T22:00:00Z,,2026-06-03 14:32:54.940611+00:00,2026-10-09,2026-10-11,Biarritz,2
14730846,apartment-biarritz,Chez Britta Biarritz,Appartement,201,https://www.booking.com/hotel/fr/apartment-biarritz.fr.html,"[""https://www.booking.com/xdata/images/hotel/square600/728580466.jpg?k=098aa7f4493f21bc99c9fbe111686c1e5eb7aed04f4fa093c598a8062a107a0a&o=""]",3AV Mont Louis,Biarritz,fr,43.4791468331223,-1.55777635707755,4.0,9.4,7.0,Fabuleux ,,9.6,False,False,False,671.224,335.612,EUR,True,,,2026-06-03 14:32:54.940612+00:00,2026-10-09,2026-10-11,Biarritz,2
3902498,9-allee-les-jardins-de-valencia,Villa luxueuse avec piscine sur les hauts de Biarritz,Villa,213,https://www.booking.com/hotel/fr/9-allee-les-jardins-de-valencia.fr.html,"[""https://www.booking.com/xdata/images/hotel/square600/156293091.jpg?k=d26aba74207eab735ffc45f0828c154e43a82fd6ae0ea0a54645e7b16f95c803&o=""]",9 allée LES JARDINS DE VALENCIA,BIARRITZ,fr,43.4550897,-1.5497139,4.0,10.0,5.0,Exceptionnel,,9.5,False,False,False,1816.736,908.368,EUR,True,,2.9,2026-06-03 14:32:54.940613+00:00,2026-10-09,2026-10-11,Biarritz,2
15967016,studio-renove-vue-imprenable-ocean-fr-1-3-633,"Studio rénové, vue imprenable océan - FR-1-3-633",Appartement,201,https://www.booking.com/hotel/fr/studio-renove-vue-imprenable-ocean-fr-1-3-633.fr.html,"[""https://www.booking.com/xdata/images/hotel/square600/834603474.jpg?k=62dcb47e5e390bfbb60f8ed122d82b8da3815fe2f214b3fcc6444f6ee47dd336&o=""]",25 avenue Edouard VII résidence le SAHEL 2eme étage,Biarritz,fr,43.485245,-1.557,3.0,0.0,0.0,,,,False,False,False,642.27,321.135,EUR,True,2026-09-08T22:00:00Z,0.6,2026-06-03 14:32:54.940614+00:00,2026-10-09,2026-10-11,Biarritz,2
14592080,apartment-3p-with-pool-sea-view,Appartement 3P avec piscine & vue sur mer,Appartement,201,https://www.booking.com/hotel/fr/apartment-3p-with-pool-sea-view.fr.html,"[""https://www.booking.com/xdata/images/hotel/square600/736909560.jpg?k=f7d0924864f425986d73d4680fea1da53bee286c206e97695f97a488dd18ce5f&o=""]",19 Avenue Alphonse XIII,Biarritz,fr,43.491865,-1.550892,3.0,10.0,4.0,Exceptionnel,,10.0,False,False,False,768.984,384.492,EUR,True,,1.5,2026-06-03 14:32:54.940615+00:00,2026-10-09,2026-10-11,Biarritz,2
2492405,apartment-residence-victoria-surf-0509-au-coeur-du-centre-ville,Studio en front de mer avec piscine à Biarritz - FR-1-3-418,Appartement,201,https://www.booking.com/hotel/fr/apartment-residence-victoria-surf-0509-au-coeur-du-centre-ville.fr.html,"[""https://www.booking.com/xdata/images/hotel/square600/760563362.jpg?k=863d99effa9f01f1a289da9269b9c11092ceb4aca1252f62eeaab4d204cb5d6e&o=""]",21 Ter Avenue Edouard Vii - Résidence Victoria Surf - Hall Central 5Eme Étage - Apaprtement 509 - ,Biarritz,fr,43.4849199,-1.5572217,,5.0,4.0,Note,,,False,False,False,495.75,247.875,EUR,True,2026-09-08T22:00:00Z,0.6,2026-06-03 14:32:54.940616+00:00,2026-10-09,2026-10-11,Biarritz,2
1805512,le-california-biarritz,Le California,Appartement,201,https://www.booking.com/hotel/fr/le-california-biarritz.fr.html,"[""https://www.booking.com/xdata/images/hotel/square600/70618233.jpg?k=0dcb5273ec51a6550e2e0555be9d8cf6f70fb5b2af07b8bb6b9fd47f254ef520&o=""]","45, avenue de Verdun",Biarritz,fr,43.4819293,-1.55627506086535,4.0,9.0,13.0,Fabuleux ,,9.8,False,False,False,592.224,296.112,EUR,True,,,2026-06-03 14:33:09.380243+00:00,2026-10-09,2026-10-11,Biarritz,2
10432531,logement-avec-piscine-privee-chauffee,Logement avec piscine privée chauffée,Logement entier,220,https://www.booking.com/hotel/fr/logement-avec-piscine-privee-chauffee.fr.html,"[""https://www.booking.com/xdata/images/hotel/square600/477804703.jpg?k=349213b752c480ea48deb56966c457670da220d3f97feb805ef37993a8c33a4a&o=""]",8 Impasse Dubroca,Biarritz,fr,43.4741239,-1.5411972,4.0,8.5,63.0,Très bien,,,True,False,False,601.792,300.896,EUR,True,,1.7,2026-06-03 14:33:09.380272+00:00,2026-10-09,2026-10-11,Biarritz,2
3309504,broquedis,Appartement HALLES,Appartement,201,https://www.booking.com/hotel/fr/broquedis.fr.html,"[""https://www.booking.com/xdata/images/hotel/square600/139297117.jpg?k=364958e9862ac44a3abb669956d7c371209634421a8a8a2e14ffea0b126a243c&o=""]",8 Rue Broquedis,Biarritz,fr,43.481316,-1.562383,,9.4,5.0,Fabuleux ,,10.0,False,False,False,888.224,444.112,EUR,True,2026-09-08T22:00:00Z,,2026-06-03 14:33:09.380283+00:00,2026-10-09,2026-10-11,Biarritz,2
11796976,lotissement,Appartement de charme - spa privé,Appartement,201,https://www.booking.com/hotel/fr/lotissement.fr.html,"[""https://www.booking.com/xdata/images/hotel/square600/852850131.jpg?k=6b30e364f1820de736c7ca325d0b44255bf072cab4aa47e3f376c0ea504b9324&o=""]",Allée Georges Braque 6,Biarritz,fr,43.4533787397676,-1.54416600624379,3.0,8.8,12.0,Superbe,,,False,False,False,351.1312,175.5656,EUR,True,2026-09-24T22:00:00Z,3.3,2026-06-03 14:33:09.380284+00:00,2026-10-09,2026-10-11,Biarritz,2
15375355,apartment-t2-halles-de-btz,Apartment T2 Halles de BTZ,Appartement,201,https://www.booking.com/hotel/fr/apartment-t2-halles-de-btz.fr.html,"[""https://www.booking.com/xdata/images/hotel/square600/785802636.jpg?k=31da5c752f9887461ce414a6e442a27397b3b206e567b67d93f9f5338ea0b5ef&o=""]",2 Rue Duler,Biarritz,fr,43.480073,-1.5636869,,8.5,2.0,Très bien,,10.0,False,False,False,308.736,154.368,EUR,True,,,2026-06-03 14:33:09.380286+00:00,2026-10-09,2026-10-11,Biarritz,2
